timestamp,ear,smoothed_ear,gaze,brow,brow_state,wrinkle,smoothed_wrinkle,mouth_open_ratio,lip_thickness,face_height,pitch,yaw,roll,forward_lean_ratio,head_stability_std,is_blink_frame,is_saccade,is_fixation
1784301794.8313973,0.299,0.299,-0.0104,0.1771,NORMAL,0.3047,0.3047,0.0202,0.2661,1.8448,8.12,-1.86,3.81,1.208,0.0,0,0,0
1784301794.848673,0.2907,0.2949,0.0088,0.175,NORMAL,0.2944,0.2996,0.0149,0.2963,1.8645,7.79,-2.74,2.91,1.189,0.0,0,0,1
1784301794.899809,0.27,0.2866,0.0049,0.1777,NORMAL,0.2995,0.2995,0.0147,0.2939,1.8574,9.38,-1.6,3.85,1.193,0.0,0,0,1
1784301794.9402165,0.2954,0.2854,0.0112,0.18,NORMAL,0.2991,0.2994,0.0315,0.2878,1.8815,8.15,-1.67,3.37,1.183,0.0,0,0,1
1784301794.9742863,0.3018,0.2891,-0.0052,0.1779,NORMAL,0.2951,0.2986,0.0145,0.2685,1.8598,7.35,-4.27,4.29,1.197,0.0,0,0,1
1784301795.007103,0.2862,0.2945,-0.006,0.1739,NORMAL,0.2963,0.2969,0.0139,0.2841,1.8538,8.15,-3.31,3.31,1.202,0.0,0,0,1
1784301795.0623186,0.2985,0.2955,0.0041,0.1761,NORMAL,0.2941,0.2968,0.0194,0.2843,1.859,8.12,-1.28,3.34,1.198,0.0,0,0,1
1784301795.0945394,0.2895,0.2914,0.0052,0.1819,NORMAL,0.3012,0.2971,0.0143,0.3013,1.883,9.24,-1.79,2.86,1.198,0.0,0,0,1
1784301795.1157103,0.2935,0.2938,0.0032,0.1824,NORMAL,0.2916,0.2956,0.0151,0.2335,1.8714,8.11,-3.72,3.81,1.201,0.0,0,0,1
1784301795.161525,0.2929,0.292,-0.0072,0.1758,NORMAL,0.291,0.2948,0.0,0.3003,1.8629,7.72,-4.13,3.34,1.201,0.0,0,0,1
1784301795.1826804,0.3072,0.2979,0.0006,0.1732,NORMAL,0.2972,0.295,0.0149,0.2906,1.8466,7.35,-2.79,3.78,1.207,0.0,0,0,1
1784301795.216265,0.2977,0.2993,0.0039,0.1731,NORMAL,0.2922,0.2946,0.0141,0.2842,1.8531,8.18,-3.61,3.81,1.202,0.0,0,0,1
1784301795.250507,0.2797,0.2949,0.0051,0.1718,NORMAL,0.3002,0.2944,0.0555,0.2674,1.8566,8.21,-4.27,4.29,1.199,0.0,0,0,1
1784301795.3313243,0.3062,0.2945,0.0034,0.1722,NORMAL,0.2894,0.294,0.0,0.2758,1.862,8.52,-1.37,3.34,1.202,0.0,0,0,1
1784301795.3806765,0.2809,0.2889,-0.0015,0.1759,NORMAL,0.2933,0.2945,0.0286,0.2756,1.8483,8.63,-2.28,3.85,1.2,2.037,0,0,1
1784301795.41452,0.2766,0.2879,0.0114,0.1714,NORMAL,0.2959,0.2942,0.0143,0.2829,1.8521,7.77,-3.73,3.31,1.208,2.017,0,0,1
1784301795.4438603,0.3028,0.2868,-0.0182,0.1724,NORMAL,0.2946,0.2947,0.0145,0.3003,1.8545,8.21,-6.12,3.34,1.201,2.227,0,0,0
1784301795.4653027,0.2892,0.2896,-0.0001,0.1738,NORMAL,0.2926,0.2932,0.0445,0.2806,1.8433,6.95,-4.17,3.28,1.214,2.271,0,0,1
1784301795.4988272,0.2814,0.2911,0.0181,0.1737,NORMAL,0.295,0.2943,0.0137,0.2831,1.851,8.12,-2.23,3.81,1.203,2.228,0,0,1
1784301795.5317862,0.29,0.2869,0.002,0.1747,NORMAL,0.289,0.2934,0.0147,0.3073,1.8355,8.63,-2.17,2.84,1.208,2.228,0,0,1
1784301795.5720801,0.3243,0.2986,-0.0139,0.1737,NORMAL,0.301,0.2945,0.0145,0.3054,1.8694,8.63,-2.2,4.33,1.186,2.229,0,0,1
1784301795.615679,0.3188,0.311,0.0179,0.1676,FURROW,0.2939,0.2943,0.0147,0.2777,1.8488,8.23,-3.38,3.85,1.193,2.186,0,0,0
1784301795.6654508,0.3269,0.3233,0.0077,0.1631,FURROW,0.2988,0.2955,0.0143,0.2773,1.8612,8.18,-4.73,3.81,1.196,2.195,0,0,1
1784301795.6985326,0.2985,0.3147,0.0122,0.1757,NORMAL,0.2982,0.2962,0.0137,0.2842,1.8482,6.98,-2.98,3.78,1.201,2.202,0,0,1
1784301795.7317462,0.3139,0.3131,-0.0111,0.1725,NORMAL,0.2918,0.2967,0.0571,0.2674,1.8235,6.26,-3.88,3.81,1.206,2.277,0,0,0
1784301795.7652094,0.298,0.3035,-0.0107,0.1759,NORMAL,0.3053,0.2976,0.0445,0.2661,1.8514,8.99,-2.69,4.25,1.205,2.279,0,0,1
1784301795.8034573,0.2916,0.3012,-0.0018,0.1797,NORMAL,0.2932,0.2975,0.0143,0.2853,1.8688,7.72,-2.29,3.81,1.197,2.25,0,0,1
1784301795.8319166,0.2718,0.2871,0.0268,0.1815,NORMAL,0.2941,0.2965,0.0319,0.2694,1.8796,8.49,-1.2,3.37,1.19,2.266,0,0,0
1784301795.866191,0.2964,0.2866,-0.0035,0.1717,NORMAL,0.2984,0.2966,0.0435,0.2852,1.8584,7.82,-3.92,4.33,1.194,2.261,0,0,0
1784301795.8986347,0.3265,0.2982,-0.0128,0.17,NORMAL,0.2917,0.2965,0.029,0.2936,1.8739,7.75,-2.74,3.85,1.194,2.228,0,0,1
1784301795.9323516,0.3017,0.3082,0.0122,0.1788,NORMAL,0.3007,0.2956,0.0857,0.2686,1.8689,8.52,-1.56,3.34,1.197,2.247,0,0,0
1784301795.9684143,0.2887,0.3057,0.0122,0.1749,NORMAL,0.2918,0.2953,0.0143,0.296,1.8455,7.35,-2.89,3.28,1.218,2.24,0,0,1
1784301796.006711,0.3092,0.2999,-0.0066,0.1745,NORMAL,0.2947,0.2955,0.0202,0.2594,1.8675,8.58,-4.53,3.81,1.198,2.205,0,0,1
1784301796.0566008,0.3243,0.3074,-0.0113,0.174,NORMAL,0.2946,0.2947,0.0208,0.3014,1.8788,7.36,-5.57,3.81,1.195,2.267,0,0,1
1784301796.0993333,0.3076,0.3137,-0.0135,0.1744,NORMAL,0.2993,0.2962,0.0441,0.2662,1.8666,8.08,-2.66,3.34,1.204,2.229,0,0,1
1784301796.1318855,0.2625,0.2982,0.0046,0.1723,NORMAL,0.3011,0.2963,0.0857,0.2416,1.8456,9.76,-0.76,3.81,1.207,2.37,0,0,1
1784301796.1579556,0.2873,0.2858,-0.0072,0.1749,NORMAL,0.2983,0.2976,0.0,0.2823,1.8441,8.15,-2.6,3.31,1.207,2.331,0,0,1
1784301796.1924353,0.3092,0.2864,-0.0054,0.1782,NORMAL,0.295,0.2977,0.0147,0.2834,1.8624,8.58,-4.04,3.34,1.201,2.268,0,0,1
1784301796.2180138,0.2929,0.2965,-0.0051,0.1766,NORMAL,0.2917,0.2971,0.0145,0.2918,1.847,7.01,-2.79,3.81,1.2,2.291,0,0,1
1784301796.2518263,0.2969,0.2997,0.0158,0.191,RAISED,0.3025,0.2977,0.0147,0.3212,1.8586,8.59,-2.23,3.85,1.193,2.288,0,0,0
1784301796.2892146,0.2722,0.2873,0.0116,0.1941,RAISED,0.3002,0.2975,0.0563,0.2773,1.8469,7.38,-0.79,3.81,1.195,2.354,0,0,1
1784301796.3194573,0.2832,0.2841,0.0142,0.1945,RAISED,0.2988,0.2976,0.0141,0.2757,1.8503,8.12,-0.81,3.81,1.203,2.407,0,0,1
1784301796.3520958,0.2836,0.2797,0.0025,0.1981,RAISED,0.3009,0.2988,0.0141,0.277,1.8531,6.94,-0.87,4.29,1.197,2.458,0,0,1
1784301796.385189,0.2883,0.285,0.0123,0.1946,RAISED,0.2922,0.2989,0.0411,0.253,1.8688,7.35,-2.84,4.33,1.192,2.447,0,0,1
1784301796.4255857,0.2802,0.284,0.0131,0.1963,RAISED,0.2998,0.2984,0.0435,0.2768,1.8431,8.23,-2.17,3.37,1.197,2.445,0,0,1
1784301796.4523172,0.2698,0.2794,0.0055,0.1962,RAISED,0.3003,0.2984,0.0141,0.2832,1.8428,9.4,-2.92,3.81,1.203,2.472,0,0,1
1784301796.4920325,0.287,0.279,0.0208,0.1939,RAISED,0.2922,0.2971,0.075,0.2419,1.8527,7.29,-1.83,3.81,1.202,2.338,0,0,1
1784301796.5237527,0.3072,0.288,0.0125,0.1922,RAISED,0.2894,0.2948,0.0,0.2668,1.8604,6.14,-4.18,3.31,1.202,2.385,0,0,1
1784301796.5524287,0.2703,0.2881,0.0157,0.1959,RAISED,0.2933,0.295,0.0,0.2743,1.8574,7.75,-3.63,3.78,1.204,2.393,0,0,1
1784301796.6030285,0.3021,0.2932,0.0033,0.186,NORMAL,0.2905,0.2932,0.0,0.258,1.8602,7.79,-4.35,3.78,1.204,2.372,0,0,1
1784301796.638372,0.2973,0.2899,-0.0014,0.1927,RAISED,0.2944,0.292,0.0141,0.2664,1.8497,7.35,-3.67,3.31,1.204,2.364,0,0,1
1784301796.669845,0.2902,0.2965,0.0149,0.1914,RAISED,0.2978,0.2931,0.0199,0.2326,1.8442,8.99,-3.54,3.31,1.207,2.398,0,0,1
1784301796.750414,0.286,0.2912,0.0107,0.1954,RAISED,0.2994,0.2951,0.0,0.2497,1.8501,8.15,-3.0,3.78,1.203,2.348,0,0,1
1784301796.7838385,0.27,0.2821,-0.0067,0.1931,RAISED,0.2934,0.2951,0.0143,0.2803,1.8525,7.89,-4.7,3.88,1.186,2.379,0,0,1
1784301796.832456,0.2755,0.2772,0.011,0.1982,RAISED,0.297,0.2964,0.0137,0.2133,1.8797,7.34,0.01,4.36,1.176,2.434,0,0,1
1784301796.8748722,0.2911,0.2789,-0.0041,0.1899,RAISED,0.2908,0.2957,0.0145,0.273,1.8878,5.39,-3.98,3.88,1.175,2.545,0,0,1
1784301796.9026499,0.2833,0.2833,0.0036,0.1923,RAISED,0.2993,0.296,0.0,0.2284,1.8719,6.13,-1.1,3.85,1.185,2.628,0,0,1
1784301796.9357624,0.2517,0.2754,0.0071,0.1946,RAISED,0.3019,0.2965,0.0196,0.2438,1.8347,7.86,-2.23,3.81,1.197,2.586,0,0,1
1784301796.9664125,0.2754,0.2701,0.0119,0.197,RAISED,0.2911,0.296,0.0,0.2361,1.8507,7.45,-3.7,3.85,1.193,2.564,0,0,1
1784301797.0011642,0.2737,0.2669,0.0131,0.1981,RAISED,0.3,0.2966,0.0141,0.2523,1.8518,8.23,-3.17,3.85,1.192,2.57,0,0,1
1784301797.0344408,0.2747,0.2746,0.0091,0.1919,RAISED,0.2972,0.2979,0.0572,0.2009,1.8428,6.49,1.07,3.34,1.199,2.739,0,0,1
1784301797.0660238,0.2694,0.2726,0.0135,0.1955,RAISED,0.2917,0.2964,0.0133,0.2176,1.8355,7.04,-2.28,3.81,1.197,2.735,0,0,1
1784301797.1054938,0.2835,0.2759,0.0004,0.1909,RAISED,0.2967,0.2953,0.0,0.2256,1.848,7.01,-4.12,4.29,1.2,2.729,0,0,1
1784301797.1372695,0.2632,0.272,0.0118,0.1955,RAISED,0.2961,0.2963,0.0139,0.2353,1.8534,7.78,-2.72,4.29,1.197,2.64,0,0,1
1784301797.1678119,0.2832,0.2766,-0.0124,0.189,RAISED,0.296,0.2955,0.0422,0.2511,1.8473,7.45,-3.85,4.29,1.196,2.659,0,0,0
1784301797.2009385,0.272,0.2728,0.0197,0.1962,RAISED,0.2926,0.2946,0.0196,0.2407,1.8524,5.28,-1.64,4.25,1.208,2.646,0,0,0
1784301797.2365632,0.271,0.2754,-0.0008,0.1865,NORMAL,0.2931,0.2949,0.0139,0.2345,1.8588,5.78,-2.74,4.76,1.201,2.713,0,0,0
1784301797.2568605,0.2691,0.2707,-0.0014,0.1981,RAISED,0.303,0.2962,0.0137,0.2353,1.8643,6.21,-4.68,5.28,1.191,2.804,0,0,1
1784301797.2901936,0.2875,0.2759,0.0095,0.1901,RAISED,0.2929,0.2955,0.0,0.2423,1.8528,5.74,-3.67,5.71,1.205,2.961,0,0,1
1784301797.3244267,0.282,0.2795,-0.0034,0.1829,NORMAL,0.289,0.2941,0.0137,0.259,1.8492,7.06,-4.92,6.18,1.203,3.112,0,0,1
1784301797.3567266,0.3097,0.2931,-0.0106,0.1892,RAISED,0.2832,0.2922,0.0135,0.2496,1.849,5.41,-4.6,6.65,1.205,3.297,0,0,1
1784301797.3864493,0.2711,0.2876,0.02,0.1921,RAISED,0.3025,0.2941,0.027,0.2521,1.8486,5.03,-3.39,5.76,1.197,3.345,0,0,0
1784301797.4209065,0.2867,0.2892,-0.0004,0.1955,RAISED,0.2866,0.2908,0.0,0.2418,1.8613,6.68,-4.86,6.18,1.202,3.398,0,0,0
1784301797.457906,0.2753,0.2777,0.0038,0.1948,RAISED,0.2882,0.2899,0.0137,0.2595,1.8578,5.82,-5.15,5.71,1.201,3.499,0,0,1
1784301797.4870486,0.2928,0.2849,0.0219,0.1946,RAISED,0.2942,0.2909,0.041,0.2436,1.8528,6.98,-1.55,5.28,1.197,3.491,0,0,1
1784301797.5221403,0.3062,0.2914,0.0073,0.1956,RAISED,0.2925,0.2928,0.0133,0.2586,1.8631,6.11,-2.11,4.76,1.201,3.409,0,0,1
1784301797.55325,0.2732,0.2907,0.0017,0.1998,RAISED,0.2982,0.292,0.0141,0.2676,1.8728,6.41,2.1,3.81,1.201,3.673,0,0,1
1784301797.5928373,0.2787,0.2861,0.0216,0.2042,RAISED,0.302,0.295,0.0141,0.2683,1.8872,6.05,-1.32,3.37,1.195,3.684,0,0,1
1784301797.6285028,0.2797,0.2772,0.0213,0.1938,RAISED,0.3045,0.2983,0.0133,0.2633,1.8439,7.25,-0.28,2.35,1.218,3.796,0,0,1
1784301797.6681411,0.2589,0.2725,0.0048,0.1936,RAISED,0.2851,0.2965,0.0139,0.2664,1.8721,8.42,-0.09,1.91,1.204,3.953,0,0,1
1784301797.695982,0.2968,0.2785,0.0239,0.1877,NORMAL,0.2985,0.2977,0.0667,0.2197,1.8225,6.43,-0.99,1.4,1.231,4.072,0,0,1
1784301797.7301679,0.2859,0.2805,0.0156,0.1869,NORMAL,0.2907,0.2962,0.0137,0.2672,1.8321,6.4,-0.17,2.31,1.236,4.067,0,0,1
1784301797.7576907,0.2411,0.2746,0.0197,0.1912,RAISED,0.2931,0.2944,0.0139,0.2847,1.8273,6.8,-0.26,2.77,1.234,4.09,0,0,1
1784301797.7913477,0.2867,0.2712,0.0096,0.1874,NORMAL,0.2852,0.2905,0.0139,0.254,1.8529,5.6,-1.77,2.82,1.222,4.056,0,0,1
1784301797.8222628,0.2887,0.2721,0.0188,0.1937,RAISED,0.2966,0.2928,0.0282,0.2376,1.8674,7.13,-1.26,2.35,1.223,4.053,0,0,1
1784301797.855491,0.2657,0.2803,0.0149,0.1971,RAISED,0.293,0.2917,0.0,0.2693,1.8611,7.94,-3.05,2.79,1.228,4.056,0,0,1
1784301797.8848083,0.2829,0.2791,0.0125,0.1874,NORMAL,0.2919,0.2919,0.0139,0.2376,1.8716,6.34,-2.47,3.75,1.222,4.04,0,0,1
1784301797.91875,0.2809,0.2765,0.0231,0.198,RAISED,0.2934,0.292,0.0,0.2751,1.9018,7.13,-1.98,3.81,1.202,4.018,0,0,1
1784301797.9497757,0.3012,0.2884,0.0124,0.195,RAISED,0.293,0.2936,0.0278,0.272,1.8886,7.49,-1.87,3.31,1.215,4.008,0,0,1
1784301797.9728618,0.2922,0.2915,0.0142,0.1942,RAISED,0.2903,0.2923,0.0151,0.2751,1.9139,8.65,-1.4,3.81,1.205,4.035,0,0,1
1784301798.0379484,0.2785,0.2906,0.0004,0.1865,NORMAL,0.2908,0.2919,0.0147,0.2808,1.8871,7.97,-3.88,4.25,1.212,3.977,0,0,1
1784301798.078506,0.2802,0.2836,0.0177,0.1839,NORMAL,0.2947,0.2924,0.1025,0.2539,1.8766,7.46,-0.59,3.26,1.224,4.022,0,0,1
1784301798.105984,0.2533,0.2707,0.0253,0.196,RAISED,0.2917,0.2921,0.0945,0.2374,1.8908,8.17,0.45,3.72,1.224,4.092,0,0,1
1784301798.140733,0.2625,0.2654,0.0172,0.1953,RAISED,0.2918,0.2919,0.0147,0.2639,1.8821,6.34,-0.77,3.78,1.214,4.089,0,0,1
1784301798.1681654,0.286,0.2673,0.0017,0.1949,RAISED,0.2993,0.2937,0.0869,0.2804,1.8789,7.1,-0.41,2.84,1.216,4.091,0,0,1
1784301798.2027318,0.2655,0.2713,0.0426,0.2031,RAISED,0.3069,0.2969,0.0845,0.2729,1.8951,6.7,0.85,3.78,1.211,4.122,0,0,0
1784301798.2298436,0.2743,0.2753,0.0307,0.1994,RAISED,0.3069,0.2993,0.0704,0.2815,1.8988,6.68,0.98,3.78,1.209,4.159,0,0,1
1784301798.2639873,0.2679,0.2693,0.0256,0.1926,RAISED,0.304,0.3018,0.0986,0.2962,1.8811,6.68,0.45,2.82,1.22,4.103,0,0,1
1784301798.3039415,0.2559,0.2661,0.0267,0.1956,RAISED,0.2864,0.3007,0.0869,0.295,1.8697,7.05,1.77,3.28,1.222,4.092,0,0,1
1784301798.3320642,0.2904,0.2714,0.0369,0.1919,RAISED,0.3039,0.3016,0.1796,0.2392,1.8591,6.31,1.7,3.28,1.219,3.984,0,0,1
1784301798.3655293,0.256,0.2674,0.0172,0.1943,RAISED,0.288,0.2979,0.0143,0.2969,1.8817,6.31,0.5,3.31,1.214,3.732,0,0,1
1784301798.4013414,0.2899,0.2787,0.0033,0.1905,RAISED,0.2914,0.2947,0.1249,0.2567,1.8627,6.36,0.72,3.78,1.218,3.559,0,0,1
1784301798.4334128,0.2743,0.2734,0.0184,0.1987,RAISED,0.2993,0.2938,0.1388,0.2325,1.8767,6.37,-0.02,3.78,1.208,3.282,0,0,1
1784301798.4675608,0.2854,0.2832,0.0208,0.1887,NORMAL,0.2898,0.2945,0.0735,0.2783,1.8681,7.1,0.84,3.28,1.224,2.949,0,0,1
1784301798.5005214,0.2592,0.2729,0.0104,0.1943,RAISED,0.31,0.2957,0.1571,0.2311,1.8901,7.49,-0.01,3.31,1.215,2.857,0,0,1
1784301798.5507128,0.2754,0.2733,0.0172,0.1929,RAISED,0.2981,0.2977,0.0571,0.3124,1.8772,6.31,-1.49,3.75,1.218,2.781,0,0,1
1784301798.57963,0.2787,0.2711,0.0062,0.1955,RAISED,0.2955,0.2986,0.0579,0.2775,1.8697,5.9,-0.58,3.26,1.227,2.706,0,0,1
1784301798.616287,0.259,0.2711,0.0226,0.1996,RAISED,0.2941,0.2975,0.0294,0.2694,1.8799,7.84,-0.37,3.72,1.227,2.704,0,0,1
1784301798.650798,0.2779,0.2719,0.0099,0.1913,RAISED,0.2923,0.298,0.0274,0.2958,1.8867,5.11,-0.82,3.75,1.218,2.761,0,0,1
1784301798.6856477,0.2588,0.2652,0.0133,0.1935,RAISED,0.3063,0.2973,0.0714,0.2705,1.85,6.42,-0.58,3.28,1.225,2.663,0,0,1
1784301798.7197444,0.2692,0.2686,0.0193,0.1923,RAISED,0.284,0.2945,0.0141,0.3114,1.8548,6.37,1.24,3.28,1.222,2.581,0,0,1
1784301798.752823,0.2674,0.2651,0.0076,0.1886,NORMAL,0.2901,0.2934,0.0435,0.2711,1.8674,5.97,-0.19,3.75,1.219,2.554,0,0,1
1784301798.7798595,0.2542,0.2636,0.0051,0.1933,RAISED,0.3051,0.2956,0.0714,0.2799,1.847,7.25,-0.89,3.28,1.216,2.542,0,0,1
1784301798.8133466,0.2705,0.264,0.0219,0.1833,NORMAL,0.3016,0.2974,0.0447,0.2938,1.8471,7.12,2.81,3.26,1.227,2.597,0,0,1
1784301798.851187,0.2855,0.2701,-0.0081,0.1904,RAISED,0.3022,0.2966,0.0882,0.2567,1.8511,7.28,-1.82,3.31,1.214,2.559,0,0,0
1784301798.876206,0.2779,0.278,0.007,0.1933,RAISED,0.2982,0.2994,0.0145,0.281,1.8717,5.63,-1.98,3.31,1.211,2.49,0,0,1
1784301798.9095397,0.2876,0.2837,0.0163,0.191,RAISED,0.2941,0.3002,0.0422,0.2696,1.8489,5.55,0.38,3.26,1.225,2.466,0,0,1
1784301798.9510746,0.2837,0.2831,-0.0007,0.1931,RAISED,0.2961,0.2984,0.0194,0.2968,1.862,6.37,-0.94,3.75,1.217,2.434,0,0,1
1784301798.9867852,0.274,0.2817,0.0187,0.1912,RAISED,0.3033,0.2988,0.0,0.2971,1.8669,5.55,-0.13,2.82,1.214,2.435,0,0,1
1784301799.0182939,0.297,0.2849,0.0011,0.1976,RAISED,0.2913,0.2966,0.0139,0.2884,1.875,6.76,-0.95,3.31,1.214,2.334,0,0,1
1784301799.0440843,0.2738,0.2816,0.0027,0.1922,RAISED,0.2958,0.2961,0.0191,0.2981,1.8713,7.15,0.44,3.31,1.212,2.058,0,0,1
1784301799.0835824,0.275,0.2819,0.0158,0.1982,RAISED,0.2958,0.2965,0.0194,0.2878,1.8399,4.82,-1.11,3.28,1.221,2.125,0,0,1
1784301799.111567,0.2788,0.2758,0.0145,0.1955,RAISED,0.2993,0.2971,0.0282,0.2877,1.8526,6.03,-1.84,3.28,1.218,2.106,0,0,1
1784301799.1513789,0.2773,0.277,0.0139,0.1932,RAISED,0.2964,0.2957,0.0139,0.288,1.8459,5.63,0.44,3.28,1.216,2.11,0,0,1
1784301799.1791353,0.2888,0.2816,0.005,0.1934,RAISED,0.2924,0.296,0.0433,0.2648,1.8578,5.65,-1.11,3.78,1.21,2.117,0,0,1
1784301799.2126555,0.259,0.275,0.0024,0.1922,RAISED,0.2987,0.2965,0.0,0.2714,1.8368,6.08,-1.06,3.75,1.217,2.116,0,0,1
1784301799.2512662,0.2765,0.2748,0.0079,0.1865,NORMAL,0.297,0.2968,0.0135,0.2728,1.8541,6.45,-0.64,2.84,1.212,2.109,0,0,1
1784301799.2855308,0.2795,0.2717,0.0121,0.1963,RAISED,0.2912,0.2952,0.0139,0.2792,1.8613,5.63,-1.45,3.28,1.218,2.115,0,0,1
1784301799.3053746,0.2729,0.2763,0.0208,0.1986,RAISED,0.3022,0.2963,0.0143,0.2734,1.8829,7.53,0.19,3.78,1.208,2.085,0,0,1
1784301799.4031215,0.2831,0.2785,-0.0111,0.1898,RAISED,0.2935,0.2965,0.0143,0.3044,1.8527,6.85,-3.19,3.28,1.217,2.146,0,0,0
1784301799.4498122,0.2868,0.2809,0.0162,0.1854,NORMAL,0.2964,0.2961,0.0411,0.273,1.8596,5.17,0.84,3.75,1.214,2.193,0,0,0
1784301799.489365,0.2856,0.2852,0.0148,0.1995,RAISED,0.2918,0.295,0.0,0.2703,1.8441,5.29,-3.23,2.79,1.223,2.313,0,0,1
1784301799.5236895,0.2858,0.2861,0.0251,0.1901,RAISED,0.2998,0.2967,0.0211,0.3043,1.8404,5.6,1.82,2.82,1.22,2.401,0,0,1
1784301799.567074,0.2843,0.2853,0.0024,0.1913,RAISED,0.2941,0.2951,0.0202,0.2545,1.8515,6.0,-2.21,3.28,1.218,2.397,0,0,0
1784301799.6065829,0.3022,0.2908,0.0056,0.1892,RAISED,0.297,0.2958,0.0422,0.2796,1.8478,6.06,-2.86,3.28,1.221,2.417,0,0,1
1784301799.635023,0.285,0.2905,0.0031,0.1927,RAISED,0.297,0.2959,0.0,0.2533,1.8418,5.6,-1.44,3.26,1.23,2.414,0,0,1
1784301799.6707644,0.2773,0.2882,0.0167,0.1893,RAISED,0.2964,0.2969,0.0202,0.2698,1.8497,6.37,-1.04,3.26,1.225,2.415,0,0,1
1784301799.702096,0.295,0.2857,0.0026,0.1925,RAISED,0.2913,0.2952,0.0202,0.2801,1.8564,5.23,-2.53,3.75,1.216,2.404,0,0,1
1784301799.7395968,0.2984,0.2902,0.0249,0.1895,RAISED,0.297,0.2957,0.0141,0.2873,1.8508,6.79,0.96,3.75,1.219,2.426,0,0,0
1784301799.768797,0.2551,0.2828,0.008,0.1977,RAISED,0.2882,0.294,0.0139,0.2852,1.8513,5.13,1.36,2.79,1.229,2.512,0,0,1
1784301799.8322952,0.2763,0.2766,0.0182,0.1915,RAISED,0.2886,0.2923,0.0417,0.263,1.8556,7.15,-0.57,3.75,1.222,2.501,0,0,1
1784301799.8565967,0.2853,0.2722,0.0027,0.1954,RAISED,0.2941,0.2918,0.0145,0.284,1.8363,5.63,-2.36,2.79,1.233,2.537,0,0,1
1784301799.8859365,0.2547,0.2721,0.0116,0.1955,RAISED,0.293,0.2922,0.0141,0.2702,1.8465,5.23,-2.47,3.26,1.222,2.553,0,0,1
1784301799.9254384,0.299,0.2797,0.0001,0.1893,RAISED,0.2859,0.29,0.0,0.2764,1.8331,6.06,-1.93,3.72,1.231,2.38,0,0,1
1784301799.9444199,0.2693,0.2744,0.0094,0.1921,RAISED,0.3038,0.2931,0.0298,0.2772,1.8366,6.0,-0.53,3.75,1.229,2.341,0,0,1
1784301799.9777207,0.2765,0.2816,-0.0018,0.1958,RAISED,0.2903,0.2934,0.0137,0.281,1.8595,5.99,-0.31,3.78,1.215,2.339,0,0,1
1784301800.0024657,0.2934,0.2797,0.0025,0.1938,RAISED,0.295,0.2936,0.1284,0.2306,1.8455,6.45,-0.98,3.75,1.218,2.324,0,0,1
1784301800.0351956,0.292,0.2873,0.0093,0.1855,NORMAL,0.293,0.2936,0.0971,0.2465,1.8449,5.23,-0.55,3.72,1.224,2.336,0,0,1
1784301800.0929837,0.2698,0.2851,0.0179,0.1943,RAISED,0.2987,0.2962,0.0139,0.2708,1.8591,6.39,-0.93,3.75,1.219,2.317,0,0,1
1784301800.123426,0.2825,0.2814,0.0186,0.1919,RAISED,0.2884,0.2931,0.0199,0.2793,1.8586,6.37,-1.95,3.75,1.219,2.322,0,0,1
1784301800.1567526,0.2851,0.2791,0.0161,0.1953,RAISED,0.2941,0.2938,0.0286,0.2783,1.8438,6.0,-2.0,3.75,1.224,2.273,0,0,1
1784301800.1852095,0.279,0.2822,0.0133,0.1917,RAISED,0.2935,0.2935,0.0,0.296,1.8416,5.62,-0.7,3.28,1.221,2.243,0,0,1
1784301800.2246687,0.2927,0.2856,0.0114,0.1976,RAISED,0.2794,0.2908,0.0202,0.2729,1.8847,6.34,-1.61,3.75,1.214,2.246,0,0,1
1784301800.2527003,0.28,0.2839,0.009,0.1921,RAISED,0.2891,0.2889,0.0445,0.2528,1.8451,6.39,-1.5,3.72,1.229,2.219,0,0,1
1784301800.287955,0.2733,0.282,0.0092,0.1913,RAISED,0.2843,0.2881,0.0147,0.2691,1.8361,4.43,-2.44,3.26,1.229,2.299,0,0,1
1784301800.326158,0.3101,0.2878,0.0022,0.1877,NORMAL,0.2952,0.2883,0.0434,0.2696,1.8423,5.99,-1.62,3.75,1.226,2.301,0,0,1
1784301800.3528454,0.2837,0.289,0.0105,0.1923,RAISED,0.2924,0.2881,0.0211,0.2709,1.8465,4.78,-0.99,3.72,1.227,2.308,0,0,1
1784301800.3811169,0.2716,0.2885,0.0064,0.1943,RAISED,0.2901,0.2902,0.0428,0.2874,1.8578,6.42,-1.9,3.75,1.22,2.319,0,0,1
1784301800.4136732,0.2758,0.277,0.0046,0.197,RAISED,0.2983,0.2921,0.0139,0.264,1.8514,5.62,-0.53,3.78,1.213,2.234,0,0,1
1784301800.4436982,0.2791,0.2755,0.0041,0.195,RAISED,0.2898,0.2932,0.0141,0.2794,1.8586,6.39,-1.17,4.22,1.221,2.184,0,0,1
1784301800.469899,0.2913,0.2821,0.0163,0.1893,RAISED,0.2947,0.293,0.0143,0.3022,1.8507,3.99,0.09,4.18,1.225,2.244,0,0,1
1784301800.5042653,0.2929,0.2878,0.0353,0.1838,NORMAL,0.2976,0.2941,0.0294,0.2797,1.8521,6.33,0.27,3.28,1.224,2.186,0,0,1
1784301800.5376616,0.288,0.2907,0.0584,0.1808,NORMAL,0.2938,0.2948,0.0,0.2881,1.8557,6.06,-3.4,4.25,1.217,2.119,0,0,0
1784301800.5757732,0.2737,0.2849,0.0859,0.182,NORMAL,0.2895,0.2931,0.0286,0.278,1.85,5.57,-0.64,2.82,1.225,2.135,0,0,0
1784301800.6000094,0.2791,0.2803,0.0449,0.1878,NORMAL,0.2886,0.2928,0.0,0.3026,1.853,6.39,-1.17,3.75,1.224,2.093,0,0,0
1784301800.6297472,0.2775,0.2767,0.0432,0.1842,NORMAL,0.2979,0.2935,0.0135,0.2801,1.8567,6.06,-3.08,3.28,1.216,2.147,0,0,1
1784301800.663543,0.3167,0.2911,0.0631,0.1722,NORMAL,0.2937,0.2927,0.0,0.2964,1.8275,4.93,-2.25,3.28,1.219,2.176,0,0,1
1784301800.739005,0.3011,0.2984,0.0398,0.1827,NORMAL,0.2869,0.2913,0.0145,0.279,1.8341,6.15,-3.99,3.75,1.221,2.253,0,0,0
1784301800.7625678,0.2736,0.2971,0.0549,0.1811,NORMAL,0.2856,0.2906,0.1014,0.2519,1.8258,5.99,-1.14,3.69,1.237,2.156,0,0,1
1784301800.7888138,0.2707,0.2818,0.0649,0.1848,NORMAL,0.2926,0.2914,0.0724,0.2599,1.8391,7.18,-1.55,3.69,1.234,2.031,0,0,1
1784301800.8166232,0.2821,0.2755,0.0573,0.1863,NORMAL,0.2919,0.2902,0.0,0.2796,1.8617,4.84,-2.33,4.22,1.218,2.029,0,0,1
1784301800.8531492,0.277,0.2766,0.0606,0.1807,NORMAL,0.295,0.2904,0.0315,0.2607,1.8317,6.41,1.52,3.72,1.228,2.126,0,0,1
1784301800.8844993,0.2787,0.2793,0.0531,0.183,NORMAL,0.2902,0.2911,0.0147,0.2801,1.8528,5.99,-0.24,3.78,1.219,2.107,0,0,1
1784301800.9180927,0.2824,0.2794,0.0522,0.1872,NORMAL,0.2947,0.2929,0.0149,0.2723,1.887,5.55,-1.29,3.78,1.213,2.103,0,0,1
1784301800.95703,0.2887,0.2833,0.0536,0.1827,NORMAL,0.2859,0.2915,0.0,0.3118,1.8418,5.69,-2.44,3.75,1.221,2.112,0,0,1
1784301800.9905143,0.2823,0.2845,0.0456,0.175,NORMAL,0.2771,0.2886,0.0143,0.2948,1.8469,6.09,-4.47,3.75,1.223,2.226,0,0,1
1784301801.0186448,0.284,0.285,0.061,0.1903,RAISED,0.2827,0.2861,0.0143,0.2875,1.8602,6.43,-1.68,4.22,1.219,2.236,0,0,1
1784301801.0532217,0.2881,0.2848,0.0613,0.178,NORMAL,0.2903,0.2861,0.0145,0.2965,1.8534,5.19,-0.89,3.75,1.219,2.23,0,0,1
1784301801.0854783,0.2987,0.2903,0.0364,0.1822,NORMAL,0.2873,0.2846,0.0141,0.2808,1.8692,5.6,-3.02,3.75,1.213,2.247,0,0,0
1784301801.1228251,0.2816,0.2895,0.0557,0.1819,NORMAL,0.2934,0.2862,0.0319,0.2696,1.8415,6.06,-2.09,3.72,1.226,2.242,0,0,1
1784301801.1532235,0.2883,0.2895,-0.004,0.1837,NORMAL,0.2938,0.2895,0.0147,0.2624,1.8438,6.02,-1.74,3.75,1.225,2.241,0,1,0
1784301801.178428,0.2742,0.2814,-0.0118,0.1865,NORMAL,0.2925,0.2915,0.0149,0.2722,1.8547,6.06,-1.62,4.22,1.217,2.232,0,0,1
1784301801.212501,0.2257,0.2627,-0.0295,0.2098,RAISED,0.2924,0.2919,0.0199,0.2593,1.8706,4.43,-2.48,4.25,1.206,2.292,0,0,1
1784301801.2532825,0.2176,0.2392,-0.0429,0.2122,RAISED,0.2838,0.2912,0.0,0.2761,1.8875,5.27,-3.25,4.76,1.197,2.364,1,0,1
1784301801.2790415,0.2487,0.2307,-0.013,0.198,RAISED,0.2849,0.2895,0.0143,0.29,1.8465,6.85,-1.06,4.25,1.212,2.342,0,0,0
1784301801.3122787,0.2806,0.2489,-0.0089,0.1938,RAISED,0.2936,0.2894,0.0208,0.3068,1.8615,5.62,0.08,4.25,1.208,2.388,0,0,1
1784301801.3534815,0.296,0.2751,-0.0095,0.1899,RAISED,0.2953,0.29,0.0145,0.2883,1.856,6.03,-0.77,3.78,1.216,2.366,0,0,1
1784301801.3790078,0.287,0.2878,-0.0194,0.1912,RAISED,0.2891,0.2893,0.0,0.2536,1.8526,4.81,-2.23,4.18,1.224,2.39,0,0,1
1784301801.4138494,0.2808,0.2879,-0.027,0.1925,RAISED,0.291,0.2908,0.0,0.2892,1.8657,6.43,-2.59,4.22,1.216,2.399,0,0,1
1784301801.4536362,0.2785,0.2821,-0.0187,0.1923,RAISED,0.2918,0.2922,0.0145,0.2879,1.8546,5.26,-1.87,3.78,1.217,2.389,0,0,1
1784301801.485893,0.2828,0.2807,-0.0077,0.193,RAISED,0.2869,0.2908,0.0,0.2888,1.845,6.48,-2.81,3.31,1.218,2.293,0,0,1
1784301801.5162253,0.2774,0.2796,-0.0179,0.1951,RAISED,0.2901,0.2898,0.0724,0.2568,1.8573,4.88,-2.53,4.25,1.21,2.249,0,0,1
1784301801.5538878,0.3026,0.2876,-0.0191,0.1924,RAISED,0.2876,0.2895,0.0145,0.2741,1.8811,7.18,0.61,3.81,1.206,2.335,0,0,1
1784301801.5851488,0.2952,0.2917,-0.023,0.1848,NORMAL,0.2958,0.2905,0.0149,0.2886,1.869,5.24,-2.59,3.28,1.218,2.298,0,0,1
1784301801.6193986,0.2841,0.294,-0.0168,0.1924,RAISED,0.2983,0.2917,0.0143,0.2644,1.8792,5.94,-1.53,3.78,1.211,2.285,0,0,1
1784301801.653792,0.2776,0.2856,-0.0121,0.188,NORMAL,0.297,0.2938,0.0141,0.3061,1.8611,6.03,-0.19,3.75,1.213,2.28,0,0,1
1784301801.6799824,0.2903,0.284,-0.0153,0.1855,NORMAL,0.2975,0.2952,0.0,0.2808,1.8604,6.0,-0.53,3.31,1.213,2.273,0,0,1
1784301801.7142339,0.2708,0.2796,-0.0197,0.1816,NORMAL,0.293,0.2963,0.0199,0.2783,1.839,5.62,0.26,4.69,1.222,2.274,0,0,1
1784301801.7538133,0.2824,0.2812,-0.0226,0.1892,RAISED,0.293,0.2958,0.0,0.2897,1.866,6.06,-1.56,3.78,1.21,2.271,0,0,1
1784301801.7805068,0.2953,0.2828,-0.016,0.1868,NORMAL,0.29,0.2941,0.0,0.2731,1.82,6.35,-1.22,3.66,1.247,2.233,0,0,1
1784301801.8137794,0.2942,0.2907,-0.0185,0.1878,NORMAL,0.295,0.2937,0.0143,0.2626,1.8509,4.75,-0.32,3.72,1.225,2.245,0,0,1
1784301801.8539023,0.3083,0.2993,-0.0241,0.1916,RAISED,0.2967,0.2935,0.0,0.273,1.8647,5.2,-0.12,4.25,1.211,2.149,0,0,1
1784301801.8835726,0.3072,0.3032,-0.0072,0.182,NORMAL,0.294,0.2937,0.0139,0.2546,1.8672,6.73,0.67,4.22,1.22,2.218,0,0,1
1784301801.9205577,0.3177,0.3111,-0.0331,0.1906,RAISED,0.2945,0.294,0.0145,0.2817,1.8878,6.37,-2.12,4.25,1.212,2.232,0,0,0
1784301801.9541502,0.3068,0.3106,-0.0126,0.1873,NORMAL,0.295,0.295,0.0141,0.2563,1.896,5.89,-0.3,4.25,1.212,2.241,0,0,0
1784301802.005737,0.2946,0.3064,-0.034,0.1833,NORMAL,0.29,0.294,0.0154,0.2631,1.8491,6.06,-0.42,4.65,1.222,2.137,0,0,0
1784301802.0389252,0.2925,0.2979,-0.0128,0.1905,RAISED,0.2902,0.2927,0.0451,0.2573,1.8534,6.04,0.67,3.78,1.208,2.182,0,0,0
1784301802.0762782,0.2927,0.2933,-0.0363,0.1903,RAISED,0.2923,0.2924,0.0149,0.2627,1.8517,5.23,-2.0,4.22,1.219,2.186,0,0,0
1784301802.1057222,0.309,0.2981,-0.0242,0.1875,NORMAL,0.2876,0.291,0.0143,0.2715,1.84,5.65,-2.21,3.75,1.221,2.155,0,0,1
1784301802.1433473,0.2899,0.2972,-0.0245,0.1861,NORMAL,0.2864,0.2893,0.0428,0.2737,1.8501,6.39,0.17,5.19,1.215,2.232,0,0,1
1784301802.1718042,0.2952,0.298,-0.0213,0.1864,NORMAL,0.2843,0.2882,0.0143,0.2891,1.8691,5.63,-2.55,4.25,1.213,2.252,0,0,1
1784301802.2229118,0.2962,0.2937,-0.01,0.1819,NORMAL,0.2849,0.2871,0.0154,0.2623,1.8428,6.02,-0.16,4.18,1.226,2.263,0,0,1
1784301802.2546856,0.2987,0.2967,0.0028,0.1809,NORMAL,0.288,0.2862,0.0145,0.2598,1.8483,5.11,-0.36,4.18,1.233,2.207,0,0,1
1784301802.287104,0.2735,0.2894,0.0126,0.1892,RAISED,0.288,0.2863,0.0286,0.2925,1.8418,5.57,0.02,3.69,1.231,2.129,0,0,1
1784301802.3224301,0.2838,0.2853,0.0381,0.1775,NORMAL,0.2876,0.2865,0.0,0.2855,1.8459,5.57,-0.63,3.72,1.228,2.104,0,0,0
1784301802.354764,0.2936,0.2836,0.0196,0.1866,NORMAL,0.2974,0.2892,0.0141,0.2938,1.8494,7.93,0.01,4.18,1.227,2.215,0,0,1
1784301802.3855257,0.2993,0.2922,0.0297,0.1834,NORMAL,0.2898,0.2902,0.0145,0.2692,1.8547,5.13,-0.18,4.18,1.227,2.235,0,0,1
1784301802.4497814,0.2905,0.2945,0.0294,0.1861,NORMAL,0.2948,0.2915,0.0145,0.2698,1.8611,6.75,-0.74,4.22,1.225,2.201,0,0,1
1784301802.4762027,0.304,0.2979,0.0281,0.1859,NORMAL,0.2875,0.2914,0.0143,0.2971,1.8748,5.93,-0.36,4.25,1.216,2.153,0,0,1
1784301802.5124137,0.3039,0.2995,0.0254,0.1833,NORMAL,0.289,0.2917,0.0141,0.2724,1.8734,5.22,-2.36,3.75,1.217,2.174,0,0,1
1784301802.5434694,0.2937,0.3005,0.0337,0.1876,NORMAL,0.2799,0.2882,0.0,0.2772,1.8658,5.89,0.1,3.72,1.232,2.097,0,0,1
1784301802.5765338,0.2971,0.2982,0.0104,0.1822,NORMAL,0.2902,0.2883,0.0422,0.262,1.8779,5.89,-1.24,4.22,1.224,2.021,0,0,0
1784301802.6047337,0.2827,0.2912,0.0291,0.1809,NORMAL,0.2934,0.288,0.0,0.2668,1.84,8.37,-2.0,4.15,1.238,2.117,0,0,1
1784301802.6254582,0.2737,0.2845,0.0248,0.1794,NORMAL,0.2918,0.2889,0.0,0.2671,1.8332,7.18,-2.12,3.69,1.238,2.091,0,0,1
1784301802.6590137,0.2971,0.2845,0.0129,0.1826,NORMAL,0.2908,0.2892,0.0,0.2814,1.8587,6.43,-1.7,4.22,1.221,2.097,0,0,1
1784301802.699936,0.291,0.2873,0.0219,0.1782,NORMAL,0.2843,0.2901,0.029,0.271,1.8629,6.76,-1.65,3.75,1.223,2.113,0,0,1
1784301802.7268367,0.2827,0.2903,0.0251,0.188,NORMAL,0.2864,0.2893,0.0,0.2785,1.8468,4.44,-1.36,4.18,1.223,2.141,0,0,1
1784301802.7604415,0.2758,0.2832,0.0341,0.1892,RAISED,0.2987,0.2904,0.0435,0.2539,1.8488,4.44,-0.37,4.22,1.221,2.15,0,0,1
1784301802.7958045,0.2978,0.2854,0.0315,0.1787,NORMAL,0.2901,0.2901,0.0281,0.2602,1.8595,4.73,1.23,3.72,1.231,2.243,0,0,1
1784301802.833102,0.3056,0.2931,0.0172,0.187,NORMAL,0.2907,0.29,0.0145,0.2676,1.8592,5.2,-3.9,3.72,1.236,2.39,0,0,1
1784301802.8747647,0.3111,0.3049,0.0374,0.1845,NORMAL,0.2875,0.2907,0.0429,0.2706,1.8597,5.15,0.73,3.75,1.225,2.407,0,0,0
1784301802.9102838,0.2889,0.3019,0.0218,0.1887,NORMAL,0.2822,0.2899,0.0199,0.2713,1.8534,6.02,-1.08,3.75,1.219,2.395,0,0,1
1784301802.9457524,0.3006,0.3002,0.0226,0.1868,NORMAL,0.293,0.2887,0.0143,0.2766,1.8403,4.78,-0.64,3.69,1.232,2.376,0,0,1
1784301802.977172,0.3021,0.2972,0.0129,0.1876,NORMAL,0.2859,0.2879,0.0319,0.2775,1.8484,6.37,-2.09,4.22,1.226,2.374,0,0,1
1784301803.010666,0.2903,0.2977,0.0196,0.1845,NORMAL,0.2987,0.2895,0.0143,0.2688,1.8356,6.06,-2.65,4.18,1.23,2.409,0,0,1
1784301803.0341299,0.292,0.2948,0.0251,0.1917,RAISED,0.2838,0.2887,0.0143,0.2868,1.8512,4.81,-2.15,3.72,1.226,2.426,0,0,1
1784301803.0675704,0.2917,0.2913,0.0191,0.1837,NORMAL,0.2891,0.2901,0.0141,0.2699,1.8431,6.06,-2.21,4.22,1.225,2.398,0,0,1
1784301803.1049936,0.2954,0.293,0.0176,0.1828,NORMAL,0.2887,0.2892,0.0143,0.278,1.8439,4.44,-1.8,3.72,1.225,2.424,0,0,1
1784301803.1342137,0.3072,0.2981,0.0228,0.1849,NORMAL,0.2886,0.2898,0.0137,0.2612,1.8717,6.67,-0.65,3.72,1.228,2.423,0,0,1
1784301803.1630168,0.3026,0.3017,0.021,0.1831,NORMAL,0.2924,0.2885,0.0156,0.278,1.854,5.22,-2.55,3.28,1.229,2.372,0,0,1
1784301803.1967764,0.2889,0.2995,0.0362,0.1883,NORMAL,0.2898,0.2897,0.0147,0.2683,1.8408,6.36,-1.04,3.26,1.232,2.369,0,0,1
1784301803.231503,0.2878,0.2931,0.0213,0.1799,NORMAL,0.2924,0.2904,0.0,0.276,1.8285,4.41,-1.14,3.23,1.234,2.407,0,0,1
1784301803.2649548,0.2932,0.29,0.0158,0.184,NORMAL,0.2897,0.2906,0.0139,0.2936,1.8636,6.4,-3.56,3.26,1.228,2.49,0,0,1
1784301803.304894,0.3008,0.294,0.0212,0.1812,NORMAL,0.2902,0.2909,0.0143,0.2451,1.8673,4.8,-2.33,3.75,1.225,2.495,0,0,1
1784301803.3676,0.2942,0.2961,-0.0038,0.1876,NORMAL,0.2892,0.2903,0.0286,0.2856,1.8508,6.04,-4.04,4.18,1.231,2.587,0,0,0
1784301803.400212,0.292,0.2957,0.0195,0.1876,NORMAL,0.2929,0.2909,0.0145,0.296,1.8676,6.72,-0.83,4.22,1.221,2.501,0,0,0
1784301803.4348664,0.2956,0.2939,0.0134,0.1818,NORMAL,0.2941,0.2912,0.0282,0.2612,1.8404,4.81,-1.42,3.72,1.232,2.481,0,0,1
1784301803.4680073,0.294,0.2939,0.0191,0.1845,NORMAL,0.2941,0.2921,0.0143,0.2592,1.8435,5.22,-1.73,3.69,1.236,2.452,0,0,1
1784301803.4992685,0.2768,0.2888,0.0191,0.1828,NORMAL,0.2902,0.2921,0.0,0.2949,1.8587,5.97,-3.02,3.72,1.225,2.45,0,0,1
1784301803.5322309,0.2987,0.2898,0.0296,0.1901,RAISED,0.295,0.2933,0.0141,0.2861,1.8583,5.97,-2.06,3.75,1.225,2.442,0,0,1
1784301803.5623133,0.3027,0.2927,0.0191,0.1847,NORMAL,0.2886,0.2924,0.0147,0.2853,1.8531,5.97,-1.65,3.72,1.229,2.398,0,0,1
1784301803.5994477,0.2836,0.295,0.0284,0.1832,NORMAL,0.2941,0.2924,0.0458,0.2692,1.8544,6.76,-0.98,3.26,1.228,2.428,0,0,1
1784301803.6261916,0.3051,0.2971,0.024,0.186,NORMAL,0.2907,0.2917,0.0286,0.2804,1.882,6.31,-1.39,4.25,1.215,2.308,0,0,1
1784301803.6567726,0.2841,0.2909,0.0351,0.1876,NORMAL,0.2958,0.2928,0.0145,0.2863,1.8649,4.74,-0.12,2.82,1.226,2.351,0,0,1
1784301803.6883376,0.2919,0.2937,0.0297,0.1865,NORMAL,0.2843,0.2907,0.0285,0.2764,1.8574,4.36,-1.33,4.15,1.239,2.364,0,0,1
1784301803.713832,0.2934,0.2898,0.0142,0.1833,NORMAL,0.3028,0.2935,0.0714,0.2639,1.8797,5.55,-1.14,3.28,1.217,2.345,0,0,1
1784301803.747145,0.2868,0.2907,0.0332,0.1823,NORMAL,0.2987,0.2945,0.0141,0.284,1.8608,6.64,1.18,3.69,1.234,2.435,0,0,1
1784301803.7744558,0.2934,0.2912,0.0248,0.1861,NORMAL,0.2961,0.2956,0.0145,0.2797,1.8767,6.4,-2.11,3.75,1.22,2.396,0,0,1
1784301803.8078027,0.2757,0.2853,0.0142,0.1815,NORMAL,0.2956,0.2955,0.0844,0.2426,1.8295,6.43,-1.62,3.69,1.24,2.281,0,0,1
1784301803.8411686,0.2937,0.2876,0.0253,0.1878,NORMAL,0.297,0.298,0.0145,0.2708,1.8506,6.37,0.33,3.28,1.225,2.267,0,0,1
1784301803.874913,0.2922,0.2872,0.0294,0.1867,NORMAL,0.2913,0.2957,0.0422,0.271,1.849,6.36,0.85,3.75,1.227,2.275,0,0,1
1784301803.908479,0.2838,0.2899,0.028,0.1862,NORMAL,0.2907,0.2941,0.0749,0.2516,1.8359,6.46,-2.0,3.69,1.235,2.284,0,0,1
1784301803.9416122,0.2732,0.2831,0.0116,0.1944,RAISED,0.2941,0.2937,0.0285,0.2779,1.8533,7.54,-2.65,3.72,1.23,2.328,0,0,1
1784301803.9869957,0.2872,0.2814,0.032,0.1799,NORMAL,0.2935,0.2933,0.0294,0.2909,1.845,4.71,1.05,3.69,1.24,2.425,0,0,0
1784301804.0058227,0.2626,0.2743,0.043,0.1846,NORMAL,0.2903,0.292,0.0139,0.2925,1.8521,7.15,-0.12,4.18,1.235,2.463,0,0,1
1784301804.0402074,0.2854,0.2784,0.0134,0.1878,NORMAL,0.2907,0.2919,0.0149,0.2951,1.8612,7.54,-2.06,3.28,1.224,2.497,0,0,0
1784301804.0807514,0.279,0.2757,0.0195,0.1889,RAISED,0.2867,0.2911,0.0,0.2954,1.872,5.59,-2.77,3.75,1.223,2.5,0,0,1
1784301804.1083047,0.2869,0.2837,0.0261,0.1838,NORMAL,0.2923,0.2907,0.0728,0.2527,1.8533,5.97,-1.27,3.72,1.23,2.455,0,0,1
1784301804.1480136,0.2889,0.2849,0.0281,0.1902,RAISED,0.2853,0.2891,0.0141,0.2769,1.8525,6.69,0.8,4.18,1.23,2.523,0,0,1
1784301804.178148,0.289,0.2882,0.0193,0.187,NORMAL,0.2854,0.2881,0.0,0.2825,1.8285,6.39,-0.79,3.69,1.241,2.491,0,0,1
1784301804.2021399,0.2798,0.2859,0.0137,0.189,RAISED,0.2887,0.2877,0.0,0.2944,1.8487,6.39,-1.15,3.72,1.227,2.482,0,0,1
1784301804.2413948,0.2952,0.288,0.0139,0.1865,NORMAL,0.2983,0.29,0.0143,0.2874,1.8636,6.0,-1.5,3.75,1.222,2.417,0,0,1
1784301804.2628179,0.2869,0.2873,0.025,0.1884,NORMAL,0.2898,0.2895,0.0141,0.236,1.8401,5.63,-2.43,4.18,1.232,2.367,0,0,1
1784301804.2946072,0.2861,0.2894,0.0122,0.1896,RAISED,0.2891,0.2902,0.0139,0.2547,1.8697,6.73,-1.15,4.22,1.218,2.337,0,0,1
1784301804.3346827,0.2882,0.2871,0.027,0.1851,NORMAL,0.2975,0.2927,0.0285,0.2847,1.841,5.54,-0.77,3.26,1.231,2.232,0,0,1
1784301804.3614697,0.2831,0.2858,0.027,0.1833,NORMAL,0.3015,0.2952,0.0435,0.2509,1.8389,5.18,-1.29,3.69,1.238,2.226,0,0,1
1784301804.4204404,0.2782,0.2832,0.0334,0.1917,RAISED,0.2887,0.2933,0.0278,0.229,1.866,5.59,-2.59,3.72,1.226,2.226,0,0,1
1784301804.445773,0.2906,0.2839,0.0276,0.1828,NORMAL,0.2945,0.2943,0.0555,0.2714,1.8425,5.23,-2.11,3.26,1.225,2.244,0,0,1
1784301804.479267,0.289,0.2859,0.0023,0.1885,NORMAL,0.2936,0.2952,0.0149,0.2532,1.8429,6.06,-2.65,3.72,1.225,2.226,0,0,0
1784301804.508274,0.2969,0.2922,0.0013,0.1796,NORMAL,0.2881,0.2933,0.0274,0.2606,1.8283,5.69,-1.8,3.72,1.231,2.223,0,0,1
1784301804.5456898,0.3,0.2953,-0.0035,0.1779,NORMAL,0.2875,0.2905,0.0274,0.2773,1.8284,5.65,-1.92,3.72,1.231,2.232,0,0,1
1784301804.5762403,0.3012,0.2993,0.0176,0.1774,NORMAL,0.2914,0.291,0.0147,0.2678,1.82,6.45,-1.53,3.69,1.235,2.215,0,0,0
1784301804.6426828,0.3074,0.3028,0.0056,0.1808,NORMAL,0.2846,0.289,0.0,0.262,1.8483,4.47,-2.89,4.22,1.223,2.302,0,0,1
1784301804.679372,0.2923,0.3003,0.0225,0.1846,NORMAL,0.2882,0.288,0.0145,0.2537,1.8613,6.04,-3.03,3.75,1.224,2.245,0,0,1
1784301804.7086713,0.2881,0.2959,0.0282,0.1826,NORMAL,0.2898,0.2883,0.0435,0.2602,1.8409,6.46,-1.17,4.18,1.232,2.185,0,0,1
1784301804.7424238,0.2944,0.2916,0.0199,0.1807,NORMAL,0.2892,0.2886,0.0145,0.2598,1.8374,5.64,-2.59,3.69,1.234,2.19,0,0,1
1784301804.7761183,0.3055,0.296,0.0268,0.1844,NORMAL,0.2947,0.2893,0.0147,0.2535,1.859,4.36,0.08,3.26,1.225,2.199,0,0,1
1784301804.810467,0.2949,0.2983,0.0189,0.1866,NORMAL,0.2838,0.2891,0.0139,0.2667,1.8559,3.61,-3.04,3.69,1.238,2.339,0,0,1
1784301804.8432758,0.3013,0.3005,0.0179,0.1812,NORMAL,0.291,0.2897,0.0143,0.2856,1.8426,6.36,-0.77,3.72,1.231,2.344,0,0,1
1784301804.8705833,0.2796,0.2919,0.0208,0.1837,NORMAL,0.2902,0.2898,0.0137,0.237,1.8367,5.19,-0.45,4.18,1.23,2.317,0,0,1
1784301804.9038625,0.2954,0.2921,0.0132,0.1855,NORMAL,0.2864,0.2892,0.0,0.2355,1.838,5.6,-0.95,4.18,1.234,2.247,0,0,1
1784301804.9385107,0.3051,0.2934,0.0163,0.1791,NORMAL,0.2945,0.2892,0.0137,0.2518,1.838,7.22,-1.5,3.72,1.234,2.271,0,0,1
1784301804.9742393,0.2798,0.2935,0.0204,0.1911,RAISED,0.2816,0.2887,0.0145,0.2434,1.8288,5.23,-1.74,3.72,1.235,2.204,0,0,1
1784301805.0072556,0.3083,0.2977,0.0305,0.1822,NORMAL,0.2964,0.2898,0.029,0.2684,1.8448,6.79,-2.48,4.18,1.235,2.109,0,0,1
1784301805.0405223,0.2972,0.2951,0.0255,0.1826,NORMAL,0.2838,0.2885,0.0,0.2747,1.8262,4.77,-1.86,3.21,1.243,2.068,0,0,1
1784301805.071457,0.3151,0.3068,0.0284,0.1775,NORMAL,0.2884,0.2889,0.0,0.2759,1.8548,4.8,-1.66,3.72,1.233,2.005,0,0,1
1784301805.1010847,0.2957,0.3027,0.0256,0.1832,NORMAL,0.2898,0.288,0.0,0.2606,1.8403,4.77,-0.62,3.72,1.233,2.015,0,0,1
1784301805.1364222,0.292,0.3009,0.0165,0.1804,NORMAL,0.2869,0.289,0.0141,0.2777,1.8454,4.73,-1.02,3.72,1.23,2.034,0,0,1
1784301805.1727624,0.2953,0.2944,0.0155,0.1749,NORMAL,0.2853,0.2868,0.0199,0.2354,1.8486,4.31,0.13,4.65,1.235,2.025,0,0,1
1784301805.208929,0.307,0.2981,0.0156,0.1765,NORMAL,0.2879,0.2877,0.0,0.2534,1.8482,4.77,0.74,4.18,1.229,2.114,0,0,1
1784301805.228244,0.3005,0.3009,0.0156,0.1811,NORMAL,0.2884,0.2877,0.0,0.2603,1.851,5.15,-1.52,4.15,1.232,2.103,0,0,1
1784301805.2588208,0.3194,0.309,0.0116,0.1811,NORMAL,0.2941,0.2885,0.0,0.2623,1.8601,6.79,-2.17,4.18,1.226,2.144,0,0,1
1784301805.2947557,0.2941,0.3047,0.0159,0.1824,NORMAL,0.2946,0.2901,0.0143,0.2427,1.8245,5.15,-0.01,3.69,1.239,2.165,0,0,1
1784301805.3237576,0.286,0.2998,0.0152,0.1865,NORMAL,0.2884,0.2907,0.0,0.2611,1.8483,5.64,-1.7,3.72,1.228,2.125,0,0,1
1784301805.3610516,0.3165,0.2989,0.0196,0.18,NORMAL,0.2897,0.2911,0.0145,0.2427,1.8229,6.06,-2.09,3.23,1.239,2.13,0,0,1
1784301805.393565,0.2951,0.2992,0.0223,0.1787,NORMAL,0.2903,0.2914,0.0141,0.2512,1.8353,5.64,-2.23,4.15,1.237,2.14,0,0,1
1784301805.425215,0.3167,0.3094,0.021,0.1794,NORMAL,0.2946,0.2915,0.0143,0.2552,1.853,6.85,-2.04,4.22,1.221,2.17,0,0,1
1784301805.4652317,0.2904,0.3007,0.007,0.1866,NORMAL,0.2881,0.2902,0.0,0.2761,1.8243,4.82,-1.86,4.15,1.232,2.16,0,0,1
1784301805.4928823,0.2972,0.3014,0.0351,0.1854,NORMAL,0.2981,0.2922,0.0,0.2637,1.8597,4.75,1.05,2.82,1.219,2.298,0,0,0
1784301805.5255861,0.3019,0.2965,0.015,0.1754,NORMAL,0.2941,0.2931,0.0191,0.2508,1.8356,5.68,-3.14,3.72,1.237,2.341,0,0,0
1784301805.5594752,0.3133,0.3041,0.0047,0.1763,NORMAL,0.2918,0.2934,0.0143,0.2578,1.818,6.89,-3.56,3.23,1.242,2.453,0,0,1
1784301805.5977604,0.2884,0.3012,0.0229,0.1833,NORMAL,0.2926,0.2929,0.0564,0.2456,1.8494,5.6,-1.01,4.18,1.228,2.444,0,0,1
1784301805.6311133,0.288,0.2966,0.0206,0.1854,NORMAL,0.2994,0.2952,0.0,0.277,1.845,5.53,0.15,3.72,1.23,2.426,0,0,1
1784301805.6597826,0.2787,0.2851,0.0242,0.1826,NORMAL,0.2923,0.294,0.0145,0.2704,1.864,5.21,-3.11,3.75,1.221,2.426,0,0,1
1784301805.6903355,0.2897,0.2855,0.0196,0.1791,NORMAL,0.2954,0.2943,0.0149,0.2752,1.8308,6.46,-2.53,3.69,1.239,2.437,0,0,1
1784301805.7232854,0.3087,0.2924,0.0164,0.1821,NORMAL,0.295,0.2949,0.0139,0.2268,1.8264,5.23,-1.67,3.23,1.236,2.433,0,0,1
1784301805.7600806,0.3075,0.302,0.0312,0.1801,NORMAL,0.2869,0.2938,0.0143,0.2763,1.8499,5.97,-0.81,4.65,1.233,2.401,0,0,1
1784301805.7831087,0.2957,0.304,0.015,0.1878,NORMAL,0.2849,0.2909,0.0,0.2768,1.8515,5.22,-2.67,4.18,1.23,2.314,0,0,1
1784301805.821893,0.3071,0.3035,0.0123,0.1863,NORMAL,0.2926,0.291,0.0137,0.2761,1.8408,6.05,-3.2,4.15,1.24,2.344,0,0,1
1784301805.8410788,0.3008,0.3012,0.0148,0.1856,NORMAL,0.2908,0.29,0.054,0.2685,1.8384,4.88,-2.76,4.15,1.234,2.353,0,0,1
1784301805.874222,0.2897,0.2992,0.016,0.1808,NORMAL,0.2919,0.2894,0.0143,0.2676,1.8471,5.59,-2.76,4.15,1.239,2.364,0,0,1
1784301805.9392362,0.291,0.2938,0.019,0.1852,NORMAL,0.2934,0.2907,0.0145,0.2766,1.8419,6.36,-0.18,3.72,1.231,2.346,0,0,1
1784301805.9973192,0.2779,0.2862,0.032,0.1806,NORMAL,0.2902,0.2918,0.0298,0.2765,1.8375,5.6,-1.36,4.15,1.235,2.346,0,0,1
1784301806.0285861,0.2892,0.286,0.0172,0.1794,NORMAL,0.288,0.2909,0.0285,0.286,1.8416,6.39,-0.36,3.26,1.232,2.345,0,0,1
1784301806.0604026,0.305,0.2907,0.0022,0.1819,NORMAL,0.2941,0.2915,0.0,0.2935,1.8509,5.25,-4.11,4.18,1.231,2.405,0,0,1
1784301806.0836763,0.2867,0.2936,0.0221,0.1838,NORMAL,0.293,0.2917,0.0,0.2832,1.8281,4.78,-0.42,3.23,1.241,2.438,0,0,1
1784301806.1213012,0.2916,0.2944,0.0289,0.186,NORMAL,0.2993,0.2929,0.0832,0.2443,1.8593,4.7,1.75,3.26,1.231,2.574,0,0,1
1784301806.154687,0.3078,0.2954,0.0366,0.1782,NORMAL,0.2935,0.2936,0.1427,0.2424,1.8452,6.34,0.15,3.69,1.24,2.6,0,0,1
1784301806.1852803,0.2917,0.297,0.0299,0.1826,NORMAL,0.2881,0.2936,0.1028,0.2587,1.847,4.74,-0.86,3.69,1.238,2.528,0,0,1
1784301806.2218645,0.2954,0.2983,0.016,0.1914,RAISED,0.2864,0.2921,0.1158,0.2762,1.8559,5.55,-0.36,3.69,1.233,2.462,0,0,1
1784301806.252082,0.3054,0.2975,0.0325,0.188,NORMAL,0.2859,0.2906,0.1275,0.2517,1.8553,5.52,0.1,3.72,1.234,2.481,0,0,1
1784301806.283495,0.3057,0.3022,0.0271,0.1788,NORMAL,0.2913,0.289,0.157,0.2291,1.8683,6.77,-1.83,3.69,1.23,2.468,0,0,1
1784301806.3103335,0.2786,0.2966,0.0235,0.1794,NORMAL,0.2907,0.2885,0.0562,0.2678,1.8338,4.85,-1.08,3.69,1.238,2.455,0,0,1
1784301806.3378117,0.2693,0.2845,0.0151,0.1869,NORMAL,0.2913,0.2891,0.1216,0.2612,1.8522,5.15,0.54,4.18,1.231,2.513,0,0,1
1784301806.3615923,0.2964,0.2814,0.0319,0.1819,NORMAL,0.2976,0.2913,0.111,0.2592,1.842,5.97,0.08,4.15,1.237,2.521,0,0,1
1784301806.3897462,0.292,0.2859,0.0227,0.1837,NORMAL,0.288,0.2918,0.1448,0.2363,1.8524,5.97,-1.39,4.18,1.23,2.516,0,0,1
1784301806.4250731,0.2805,0.2896,0.0184,0.1815,NORMAL,0.2891,0.2913,0.1249,0.2541,1.8636,5.18,-0.44,4.18,1.223,2.48,0,0,1
1784301806.458873,0.2895,0.2873,0.0147,0.1881,NORMAL,0.2869,0.2906,0.1125,0.2522,1.8641,5.95,-1.42,3.72,1.234,2.459,0,0,1
1784301806.4848628,0.2908,0.2869,0.03,0.1826,NORMAL,0.2891,0.2902,0.1486,0.2286,1.8571,5.52,0.93,3.69,1.232,2.389,0,0,1
1784301806.5108283,0.3088,0.2963,0.0325,0.1843,NORMAL,0.293,0.2892,0.2329,0.2047,1.8577,5.52,0.6,3.69,1.232,2.382,0,0,1
1784301806.55285,0.2937,0.2978,0.0148,0.181,NORMAL,0.2892,0.2895,0.2597,0.2045,1.8582,5.97,-0.36,3.72,1.226,2.252,0,0,1
1784301806.5837836,0.2848,0.2958,0.0303,0.1874,NORMAL,0.2924,0.2901,0.2962,0.189,1.8651,5.59,-0.1,4.18,1.228,2.262,0,0,1
1784301806.6280355,0.3,0.2929,0.0141,0.1848,NORMAL,0.2924,0.2912,0.2182,0.2286,1.8571,5.97,-0.05,4.18,1.228,2.266,0,0,1
1784301806.6662848,0.3016,0.2955,0.0252,0.1843,NORMAL,0.2895,0.2913,0.1946,0.2279,1.8674,5.06,2.05,4.18,1.232,2.32,0,0,1
1784301806.697799,0.2997,0.3005,0.0193,0.1872,NORMAL,0.2935,0.2914,0.227,0.2293,1.8633,5.48,1.68,4.22,1.228,2.332,0,0,1
1784301806.7323322,0.315,0.3055,0.0202,0.1807,NORMAL,0.2892,0.2914,0.2652,0.2051,1.8795,6.63,1.38,4.22,1.223,2.376,0,0,1
1784301806.7731452,0.286,0.3002,0.0274,0.1847,NORMAL,0.2886,0.2906,0.2267,0.2275,1.8559,4.77,-0.26,4.61,1.234,2.39,0,0,1
1784301806.8006232,0.3033,0.3014,0.0334,0.1897,RAISED,0.2898,0.2901,0.2267,0.2041,1.8654,2.76,-0.89,4.18,1.234,2.528,0,0,1
1784301806.8338544,0.301,0.2968,0.0188,0.1864,NORMAL,0.2838,0.289,0.2994,0.1981,1.8731,3.95,1.53,4.69,1.223,2.547,0,0,1
1784301806.8761125,0.2998,0.3014,0.021,0.1823,NORMAL,0.2896,0.2882,0.2743,0.2121,1.8476,5.18,-0.69,4.15,1.234,2.47,0,0,1
1784301806.9013302,0.296,0.299,0.0262,0.1843,NORMAL,0.2882,0.288,0.2146,0.2371,1.8704,5.59,-0.69,3.75,1.226,2.388,0,0,1
1784301806.940954,0.304,0.2999,0.0262,0.1852,NORMAL,0.2936,0.289,0.2389,0.2108,1.8531,3.54,0.93,4.15,1.242,2.455,0,0,1
1784301806.9684165,0.3088,0.3029,0.0263,0.1782,NORMAL,0.289,0.2888,0.2168,0.2111,1.8516,4.33,-1.32,3.69,1.24,2.472,0,0,1
1784301807.003854,0.2964,0.3031,0.0203,0.1843,NORMAL,0.287,0.2895,0.1717,0.222,1.8756,5.09,-0.33,4.15,1.237,2.427,0,0,1
1784301807.0411105,0.295,0.3001,0.0233,0.18,NORMAL,0.2892,0.2894,0.2503,0.1783,1.8402,4.43,-2.48,4.61,1.239,2.311,0,0,1
1784301807.0740623,0.2919,0.2945,0.0112,0.1814,NORMAL,0.2947,0.2907,0.1975,0.2362,1.8494,4.35,0.34,5.11,1.235,2.352,0,0,1
1784301807.105558,0.3104,0.2991,0.0197,0.1803,NORMAL,0.289,0.2898,0.2018,0.246,1.87,4.77,0.79,5.15,1.226,2.332,0,0,1
1784301807.1358654,0.3015,0.3013,0.0392,0.1827,NORMAL,0.29,0.29,0.21,0.238,1.8598,5.89,2.17,5.57,1.226,2.463,0,0,1
1784301807.1624742,0.2973,0.3031,0.0224,0.1861,NORMAL,0.289,0.2904,0.264,0.2056,1.8717,6.33,-0.29,4.69,1.225,2.474,0,0,1
1784301807.2218547,0.2871,0.2953,0.0255,0.1829,NORMAL,0.2853,0.2896,0.1735,0.2763,1.8478,5.14,0.05,5.07,1.236,2.486,0,0,1
1784301807.262437,0.2992,0.2945,0.0115,0.1867,NORMAL,0.2862,0.2879,0.1736,0.2377,1.8599,4.44,-1.66,4.22,1.227,2.525,0,0,1
1784301807.2899396,0.3044,0.2969,0.0244,0.1844,NORMAL,0.2918,0.2884,0.157,0.2644,1.8621,4.77,0.64,4.69,1.22,2.432,0,0,1
1784301807.3241062,0.3,0.3012,0.0327,0.1868,NORMAL,0.2902,0.2885,0.1784,0.2576,1.8731,4.76,0.45,5.19,1.215,2.43,0,0,1
1784301807.3623438,0.3027,0.3023,0.019,0.1847,NORMAL,0.2915,0.289,0.1642,0.2113,1.8487,4.36,-0.02,5.07,1.234,2.454,0,0,1
1784301807.3908155,0.2926,0.2984,0.0285,0.1808,NORMAL,0.2879,0.2895,0.1717,0.263,1.8676,5.18,0.07,4.69,1.222,2.441,0,0,1
1784301807.424448,0.2856,0.2936,0.0002,0.1803,NORMAL,0.2938,0.291,0.1595,0.2193,1.8462,5.14,-0.62,5.07,1.237,2.412,0,0,0
1784301807.46234,0.2807,0.2863,0.0169,0.1823,NORMAL,0.2874,0.2902,0.1807,0.2376,1.8551,4.36,-0.26,4.65,1.229,2.418,0,0,1
1784301807.4972498,0.3117,0.2927,0.0189,0.1842,NORMAL,0.2957,0.2913,0.1819,0.2469,1.8763,5.51,-0.69,5.15,1.221,2.378,0,0,1
1784301807.516931,0.3071,0.2999,0.0276,0.1856,NORMAL,0.2962,0.2922,0.1406,0.2536,1.8599,4.39,-0.9,5.57,1.229,2.397,0,0,1
1784301807.5505476,0.3022,0.307,0.0267,0.1749,NORMAL,0.2969,0.294,0.1761,0.2454,1.8348,4.76,1.7,4.65,1.229,2.405,0,0,1
1784301807.583393,0.294,0.3011,0.0045,0.1808,NORMAL,0.2971,0.2946,0.0983,0.278,1.8444,5.22,-1.05,5.11,1.228,2.384,0,0,0
1784301807.6212482,0.3127,0.303,0.0374,0.1851,NORMAL,0.2869,0.2945,0.2284,0.2298,1.8456,3.56,1.23,5.15,1.226,2.432,0,0,0
1784301807.6629558,0.3061,0.3043,0.0302,0.183,NORMAL,0.29,0.2934,0.153,0.2659,1.8728,5.14,0.65,5.62,1.218,2.433,0,0,1
1784301807.6826162,0.2785,0.2991,0.0215,0.1858,NORMAL,0.2946,0.2931,0.1395,0.257,1.8774,6.09,-2.17,5.15,1.216,2.475,0,0,1
1784301807.7173917,0.3007,0.2951,0.01,0.1809,NORMAL,0.2954,0.2928,0.1532,0.2446,1.845,5.59,-0.56,5.57,1.233,2.448,0,0,1
1784301807.7518115,0.3037,0.2943,0.0165,0.1793,NORMAL,0.2874,0.2908,0.1412,0.262,1.8532,4.06,-2.81,5.57,1.227,2.468,0,0,1
1784301807.7861688,0.2743,0.2929,0.0237,0.1903,RAISED,0.2913,0.2917,0.1206,0.2483,1.8562,3.56,0.71,5.62,1.219,2.528,0,0,1
1784301807.8190029,0.2996,0.2925,0.0179,0.1849,NORMAL,0.289,0.2915,0.1272,0.2471,1.8686,3.98,-0.27,6.08,1.217,2.475,0,0,1
1784301807.8523388,0.2942,0.2894,0.0318,0.1821,NORMAL,0.2893,0.2905,0.1413,0.2473,1.8486,4.76,-1.08,4.65,1.23,2.424,0,0,1
1784301807.8856006,0.3053,0.2997,0.0319,0.1856,NORMAL,0.2951,0.2904,0.1603,0.2533,1.8347,4.48,-1.54,5.11,1.234,2.427,0,0,1
1784301807.9140813,0.2875,0.2957,0.0307,0.1814,NORMAL,0.2964,0.2922,0.1355,0.2461,1.856,5.56,-0.31,5.11,1.224,2.378,0,0,1
1784301807.9475813,0.2936,0.2955,0.011,0.1857,NORMAL,0.2928,0.2925,0.054,0.2874,1.8673,5.18,-0.85,5.15,1.222,2.3,0,0,1
1784301807.9805515,0.3186,0.2999,0.0183,0.1867,NORMAL,0.2998,0.2947,0.0868,0.2815,1.878,4.35,-0.7,4.69,1.216,2.225,0,0,1
1784301808.0139346,0.2967,0.303,0.0254,0.1843,NORMAL,0.2948,0.2958,0.1525,0.2328,1.8694,4.77,1.1,4.69,1.215,2.225,0,0,1
1784301808.0573924,0.3148,0.31,0.0338,0.1787,NORMAL,0.2902,0.2948,0.0684,0.2705,1.8546,4.73,2.06,4.69,1.225,2.218,0,0,1
1784301808.081077,0.2838,0.2984,0.0248,0.186,NORMAL,0.301,0.2957,0.0881,0.2785,1.8625,6.75,-1.19,5.11,1.226,2.306,0,0,1
1784301808.1147223,0.3069,0.3018,0.0155,0.1834,NORMAL,0.3,0.2972,0.1231,0.2386,1.8448,5.27,-3.29,5.57,1.227,2.429,0,0,1
1784301808.1490574,0.2807,0.2905,0.0184,0.1823,NORMAL,0.2971,0.2966,0.1433,0.2303,1.8417,6.81,0.25,5.57,1.229,2.404,0,0,1
1784301808.1883543,0.3142,0.3006,0.0096,0.1851,NORMAL,0.2931,0.2963,0.1028,0.2723,1.8605,4.77,-1.36,5.15,1.221,2.369,0,0,1
1784301808.208874,0.3026,0.2992,0.0278,0.186,NORMAL,0.2923,0.2967,0.0704,0.2615,1.862,4.48,-2.33,4.65,1.226,2.425,0,0,1
1784301808.2425265,0.3135,0.3101,0.0153,0.1844,NORMAL,0.2912,0.2947,0.0137,0.2861,1.8718,6.37,-1.65,5.62,1.225,2.44,0,0,1
1784301808.2759485,0.285,0.3004,0.0269,0.1849,NORMAL,0.2954,0.2938,0.1433,0.2216,1.8441,4.39,0.43,5.11,1.228,2.431,0,0,1
1784301808.3153367,0.2974,0.2986,0.0275,0.1871,NORMAL,0.2874,0.2919,0.0844,0.2631,1.856,3.52,1.39,4.69,1.219,2.514,0,0,1
1784301808.3433568,0.2917,0.2914,0.0274,0.1885,NORMAL,0.2946,0.2922,0.0191,0.2696,1.8541,3.98,0.78,4.69,1.225,2.55,0,0,1
1784301808.3766756,0.2918,0.2936,0.0075,0.1889,RAISED,0.2907,0.2919,0.081,0.2547,1.8575,3.98,-0.4,5.15,1.223,2.552,0,0,1
1784301808.4076104,0.2858,0.2898,0.0237,0.1801,NORMAL,0.2864,0.2909,0.0717,0.2605,1.8429,5.22,-1.59,5.07,1.238,2.568,0,0,1
1784301808.4413266,0.2887,0.2888,0.0141,0.1789,NORMAL,0.2943,0.2907,0.0954,0.2423,1.8322,5.55,1.55,4.61,1.241,2.624,0,0,1
1784301808.4797804,0.3133,0.2959,0.023,0.1847,NORMAL,0.2926,0.2917,0.0281,0.2865,1.8656,5.96,0.27,5.11,1.224,2.643,0,0,1
1784301808.5408397,0.3035,0.3018,0.0146,0.188,NORMAL,0.2864,0.2901,0.0139,0.2884,1.8648,3.19,0.34,5.15,1.218,2.686,0,0,1
1784301808.5902662,0.2952,0.304,0.035,0.1834,NORMAL,0.2951,0.291,0.0728,0.2701,1.8603,4.4,-0.62,4.65,1.227,2.636,0,0,0
1784301808.6253169,0.3,0.2996,0.0138,0.1829,NORMAL,0.2895,0.2916,0.014,0.2683,1.8397,3.98,-0.47,5.07,1.236,2.641,0,0,0
1784301808.6511526,0.3123,0.3025,0.0193,0.1795,NORMAL,0.2892,0.2906,0.0266,0.2688,1.8242,4.9,-1.98,5.11,1.237,2.604,0,0,1
1784301808.684486,0.2877,0.3,0.0074,0.1887,NORMAL,0.2869,0.2894,0.0707,0.2506,1.8339,3.28,-2.11,4.15,1.24,2.683,0,0,1
1784301808.7178197,0.294,0.298,0.024,0.1872,NORMAL,0.2856,0.2893,0.0135,0.2437,1.8583,4.77,-0.76,4.61,1.234,2.629,0,0,1
1784301808.7556744,0.292,0.2912,0.0101,0.1817,NORMAL,0.2913,0.2885,0.0131,0.2604,1.8478,4.03,-1.19,5.03,1.244,2.618,0,0,1
1784301808.7849941,0.2764,0.2875,0.0108,0.1857,NORMAL,0.2917,0.289,0.014,0.2777,1.8523,5.14,0.85,5.53,1.233,2.568,0,0,1
1784301808.8601792,0.2842,0.2842,0.0018,0.1905,RAISED,0.2863,0.2884,0.0202,0.2854,1.8742,4.28,0.32,5.11,1.229,2.521,0,0,1
1784301808.8807874,0.233,0.2645,-0.0136,0.2207,RAISED,0.2905,0.2891,0.0405,0.2602,1.8674,3.54,0.36,5.53,1.232,2.506,0,0,1
1784301808.906365,0.2418,0.253,-0.0179,0.2126,RAISED,0.299,0.2918,0.0137,0.2693,1.868,3.16,-1.16,6.03,1.228,2.59,0,0,1
1784301808.9434164,0.2602,0.245,-0.0023,0.204,RAISED,0.2902,0.2916,0.0139,0.2841,1.8646,3.18,-1.66,5.98,1.24,2.666,0,0,1
1784301808.976752,0.2545,0.2521,-0.0176,0.2073,RAISED,0.2957,0.2923,0.0141,0.292,1.8734,3.91,-0.57,5.98,1.235,2.69,0,0,1
1784301809.0097482,0.2832,0.2659,-0.0208,0.1926,RAISED,0.2878,0.2926,0.0,0.29,1.8617,2.7,0.72,4.57,1.246,2.765,0,0,1
1784301809.042412,0.2743,0.2706,-0.0143,0.1906,RAISED,0.2894,0.2924,0.0137,0.2893,1.8651,3.11,-0.31,4.57,1.249,2.798,0,0,1
1784301809.0718398,0.3083,0.2886,-0.0094,0.1895,RAISED,0.2814,0.2889,0.0135,0.2584,1.8487,3.02,1.76,3.55,1.282,2.93,0,0,1
1784301809.1090739,0.2951,0.2926,-0.0071,0.1886,NORMAL,0.2809,0.287,0.0191,0.2567,1.8471,2.6,1.0,3.55,1.288,2.981,0,0,1
1784301809.1298065,0.3054,0.3029,-0.0021,0.1757,NORMAL,0.2767,0.2832,0.0263,0.2482,1.8482,2.98,2.19,2.64,1.292,3.126,0,0,1
1784301809.169015,0.2691,0.2899,0.0127,0.1852,NORMAL,0.2675,0.2792,0.0133,0.2499,1.8276,2.47,3.92,2.6,1.323,3.341,0,0,1
1784301809.2108195,0.2853,0.2866,0.0136,0.187,NORMAL,0.2668,0.2747,0.0662,0.2521,1.8527,1.39,4.57,3.49,1.31,3.579,0,0,1
1784301809.2484415,0.2767,0.2771,0.0138,0.1797,NORMAL,0.2576,0.2699,0.026,0.2666,1.8084,2.13,5.71,2.54,1.353,3.963,0,0,1
1784301809.2752674,0.3149,0.2923,0.0052,0.1795,NORMAL,0.2639,0.2665,0.013,0.2597,1.7998,0.19,7.19,2.54,1.353,4.512,0,0,1
1784301809.310646,0.2994,0.297,0.0284,0.1751,NORMAL,0.2602,0.2632,0.013,0.2545,1.7912,0.54,8.11,2.92,1.376,4.896,0,0,0
1784301809.3421052,0.2941,0.3028,0.0296,0.1764,NORMAL,0.2621,0.2621,0.0,0.2688,1.8109,0.16,9.12,2.49,1.378,5.459,0,0,1
1784301809.3757696,0.2903,0.2946,0.0412,0.1764,NORMAL,0.2536,0.2595,0.0488,0.2439,1.7797,-3.04,8.56,2.05,1.395,6.223,0,0,1
1784301809.4143848,0.3002,0.2948,0.0455,0.174,NORMAL,0.247,0.2574,0.0395,0.2468,1.72,-3.83,9.92,1.61,1.42,7.031,0,0,1
1784301809.445956,0.3113,0.3006,0.0438,0.173,NORMAL,0.2478,0.2541,0.0194,0.2724,1.7042,-3.92,12.52,1.6,1.434,7.87,0,0,1
1784301809.4843245,0.2953,0.3022,0.0576,0.1735,NORMAL,0.2523,0.2526,0.0186,0.2548,1.7021,-3.47,13.98,1.19,1.452,8.591,0,0,1
1784301809.5120382,0.2946,0.3004,0.0476,0.1761,NORMAL,0.2549,0.2511,0.0,0.2407,1.6992,-7.71,11.0,1.19,1.454,9.384,0,0,1
1784301809.5513833,0.2941,0.2947,0.0257,0.1717,NORMAL,0.2401,0.2484,0.0633,0.2198,1.6907,-4.52,10.47,1.19,1.456,9.702,0,0,0
1784301809.5787616,0.2957,0.2948,0.0346,0.1735,NORMAL,0.2567,0.2504,0.026,0.2109,1.688,-5.2,10.97,0.39,1.47,10.139,0,0,1
1784301809.6071408,0.3018,0.2972,0.0369,0.1742,NORMAL,0.2571,0.2522,0.0506,0.2178,1.6949,-5.51,11.39,0.39,1.47,10.491,0,0,1
1784301809.6405966,0.2931,0.2969,0.0402,0.1723,NORMAL,0.2462,0.251,0.0,0.2315,1.6764,-5.28,11.42,0.78,1.469,10.734,0,0,1
1784301809.6776922,0.2921,0.2957,0.0421,0.1773,NORMAL,0.2589,0.2518,0.102,0.2267,1.7044,-4.43,10.48,0.0,1.455,10.776,0,0,1
1784301809.7108805,0.2934,0.2929,0.0498,0.1708,NORMAL,0.2509,0.2539,0.0633,0.2055,1.6885,-6.31,12.0,1.17,1.463,10.914,0,0,1
1784301809.7376354,0.2945,0.2933,0.0406,0.1731,NORMAL,0.2604,0.2547,0.1305,0.2107,1.6705,-5.2,13.07,0.0,1.473,11.016,0,0,1
1784301809.7654314,0.2867,0.2915,0.0336,0.1723,NORMAL,0.2591,0.2551,0.1481,0.1703,1.6698,-4.95,14.07,1.17,1.468,11.024,0,0,1
1784301809.8014572,0.2976,0.2929,0.0466,0.1737,NORMAL,0.254,0.2566,0.0361,0.2162,1.683,-4.78,12.67,0.39,1.48,10.927,0,0,1
1784301809.867261,0.3122,0.2988,0.0434,0.1737,NORMAL,0.2577,0.2564,0.0595,0.2137,1.7025,-4.78,10.66,0.4,1.451,10.738,0,0,1
1784301809.897817,0.2841,0.298,0.0466,0.1756,NORMAL,0.2519,0.2566,0.054,0.2126,1.6948,-4.18,13.68,1.18,1.458,10.554,0,0,1
1784301809.9308105,0.3062,0.3008,0.0503,0.1647,FURROW,0.2511,0.2548,0.0637,0.2259,1.6812,-4.46,12.67,0.39,1.463,10.18,0,0,1
1784301809.9677896,0.2948,0.295,0.0518,0.1729,NORMAL,0.2556,0.2541,0.0843,0.2306,1.6754,-5.53,12.97,0.0,1.474,9.724,0,0,1
1784301809.9967725,0.3078,0.3029,0.0459,0.1687,FURROW,0.2382,0.2509,0.0385,0.2286,1.6816,-4.46,12.28,0.77,1.487,9.102,0,0,1
1784301810.0234933,0.2925,0.2984,0.0513,0.1755,NORMAL,0.2554,0.2504,0.1084,0.2109,1.6879,-3.74,12.47,0.78,1.47,8.64,0,0,1
1784301810.0670247,0.2973,0.2992,0.0495,0.173,NORMAL,0.2606,0.2522,0.093,0.2327,1.7168,-4.07,12.67,1.18,1.463,7.971,0,0,1
1784301810.0955055,0.314,0.3013,0.0396,0.1705,NORMAL,0.2562,0.2532,0.0476,0.2259,1.7259,-4.4,12.29,0.78,1.461,7.439,0,0,1
1784301810.1270106,0.3076,0.3063,0.0425,0.1743,NORMAL,0.2585,0.2538,0.125,0.2002,1.7158,-4.09,12.3,0.78,1.452,6.748,0,0,1
1784301810.1604974,0.296,0.3058,0.041,0.1687,FURROW,0.2503,0.2562,0.0375,0.2362,1.6951,-5.52,13.66,0.77,1.481,6.117,0,0,1
1784301810.1842737,0.3085,0.304,0.0371,0.1714,NORMAL,0.2488,0.2549,0.1928,0.1897,1.7088,-3.7,11.2,0.77,1.476,5.489,0,0,1
1784301810.2187972,0.3032,0.3026,0.0617,0.1665,FURROW,0.2551,0.2538,0.0179,0.2296,1.7061,-3.31,12.7,1.16,1.483,4.838,0,0,0
1784301810.243968,0.3118,0.3079,0.0381,0.1659,FURROW,0.2566,0.2538,0.0488,0.2316,1.6874,-4.48,12.47,0.39,1.47,4.174,0,0,0
1784301810.277408,0.3109,0.3086,0.0566,0.1695,NORMAL,0.2586,0.2539,0.0247,0.2462,1.709,-4.42,11.79,1.18,1.463,3.709,0,0,1
1784301810.3189716,0.2865,0.3031,0.0466,0.1723,NORMAL,0.2613,0.2561,0.0617,0.2433,1.683,-4.76,12.08,0.39,1.48,3.159,0,0,1
1784301810.3455627,0.3176,0.305,0.0369,0.1757,NORMAL,0.2566,0.2576,0.0128,0.2338,1.7165,-5.86,12.48,1.57,1.457,2.678,0,0,1
1784301810.3692334,0.3163,0.3068,0.0377,0.1705,NORMAL,0.2596,0.2585,0.0641,0.2466,1.6852,-5.93,13.16,0.78,1.46,2.437,0,0,1
1784301810.408278,0.3046,0.3128,0.0438,0.1712,NORMAL,0.2563,0.2585,0.1039,0.1849,1.679,-4.19,13.26,0.78,1.46,2.331,0,0,1
1784301810.4356067,0.2984,0.3064,0.0517,0.1734,NORMAL,0.2582,0.2584,0.0685,0.2108,1.6801,-6.27,13.28,0.78,1.47,2.343,0,0,1
1784301810.469346,0.3007,0.3012,0.0536,0.175,NORMAL,0.2591,0.258,0.039,0.2179,1.6824,-6.31,12.85,1.17,1.469,2.299,0,0,1
1784301810.4938192,0.3244,0.3078,0.0395,0.1742,NORMAL,0.2376,0.2542,0.0133,0.2051,1.6946,-5.2,10.7,0.78,1.464,2.155,0,0,1
1784301810.5314293,0.3038,0.3096,0.0404,0.1703,NORMAL,0.2592,0.2541,0.0,0.2462,1.7101,-3.72,12.19,1.18,1.462,2.12,0,0,1
1784301810.5657558,0.2977,0.3087,0.0559,0.1714,NORMAL,0.2566,0.2541,0.0366,0.2518,1.721,-3.31,13.17,0.39,1.47,2.138,0,0,1
1784301810.5990834,0.3204,0.3073,0.0359,0.1666,FURROW,0.2589,0.2543,0.0385,0.2527,1.7077,-3.69,11.03,0.39,1.464,2.163,0,0,1
1784301810.6343849,0.3002,0.3061,0.0452,0.1783,NORMAL,0.2569,0.2538,0.013,0.2333,1.7289,-3.7,11.68,0.39,1.458,2.172,0,0,1
1784301810.665743,0.3342,0.3183,0.0432,0.1712,NORMAL,0.2517,0.2567,0.0488,0.2604,1.7269,-5.12,11.09,1.18,1.46,2.12,0,0,1
1784301810.6949246,0.3095,0.3146,0.048,0.1729,NORMAL,0.2381,0.2524,0.1886,0.1966,1.7223,-2.91,9.95,0.78,1.475,2.221,0,0,1
1784301810.7281814,0.316,0.3199,0.0385,0.1685,FURROW,0.2554,0.2522,0.0279,0.2392,1.7063,-5.83,9.25,0.78,1.465,2.355,0,0,1
1784301810.7660263,0.314,0.3132,0.0485,0.1641,FURROW,0.2443,0.2493,0.0864,0.2179,1.7108,-4.82,9.54,1.57,1.469,2.42,0,0,1
1784301810.8188722,0.3268,0.3189,0.0376,0.1679,FURROW,0.2368,0.2453,0.1071,0.2225,1.6998,-4.37,7.2,1.16,1.483,2.706,0,0,1
1784301810.8483057,0.3243,0.3217,0.0426,0.1689,NORMAL,0.2442,0.2438,0.1358,0.1983,1.7181,-4.79,7.95,0.78,1.462,2.85,0,0,1
1784301810.8673484,0.3274,0.3262,0.0539,0.1699,NORMAL,0.2479,0.2457,0.1241,0.2124,1.7214,-5.5,8.31,0.79,1.459,2.935,0,0,1
1784301810.9168208,0.3267,0.3261,0.0463,0.1666,FURROW,0.2412,0.2429,0.0366,0.2449,1.7156,-3.7,8.39,1.56,1.47,3.049,0,0,1
1784301810.9505837,0.3148,0.3229,0.0499,0.1722,NORMAL,0.2434,0.2427,0.0732,0.2305,1.7099,-3.02,9.81,0.78,1.475,3.04,0,0,1
1784301810.9839213,0.3259,0.3224,0.0471,0.1715,NORMAL,0.2405,0.2435,0.1704,0.2036,1.7236,-2.28,10.52,0.77,1.475,3.118,0,0,1
1784301811.0159693,0.3078,0.3162,0.0374,0.1716,NORMAL,0.2454,0.2437,0.0177,0.2569,1.7305,-2.92,8.32,0.77,1.481,3.213,0,0,1
1784301811.035538,0.3203,0.318,0.0193,0.1712,NORMAL,0.2483,0.2438,0.0123,0.2832,1.7267,-2.94,8.41,0.77,1.484,3.283,0,0,1
1784301811.0664945,0.3045,0.3109,0.037,0.1716,NORMAL,0.2556,0.2467,0.0482,0.2441,1.7234,-2.94,9.24,1.17,1.475,3.329,0,0,1
1784301811.1356091,0.3247,0.3165,0.0213,0.1596,FURROW,0.2455,0.2471,0.039,0.2559,1.7181,-1.85,7.15,1.16,1.485,3.517,0,0,1
1784301811.1692433,0.3052,0.3115,0.0363,0.1705,NORMAL,0.2435,0.2477,0.0509,0.2436,1.7266,-0.46,8.47,0.39,1.478,3.648,0,0,1
1784301811.2078328,0.304,0.3113,0.0239,0.1698,NORMAL,0.2369,0.246,0.0595,0.2619,1.706,-1.55,9.2,0.77,1.49,3.733,0,0,1
1784301811.242188,0.3134,0.3075,0.0057,0.1715,NORMAL,0.2458,0.2455,0.0988,0.2287,1.7236,-2.24,7.96,1.16,1.487,3.771,0,0,1
1784301811.2669086,0.2922,0.3032,0.008,0.1707,NORMAL,0.237,0.2417,0.1111,0.222,1.7285,-2.56,7.2,1.55,1.488,3.836,0,0,1
1784301811.294763,0.3118,0.3058,0.0093,0.1659,FURROW,0.2517,0.243,0.0385,0.264,1.7341,-1.49,7.06,0.78,1.477,3.945,0,0,1
1784301811.3296955,0.3064,0.3035,-0.0006,0.1692,NORMAL,0.2424,0.2427,0.0622,0.2451,1.7205,-2.58,5.98,1.17,1.471,4.027,0,0,1
1784301811.3549285,0.3081,0.3088,-0.0069,0.1732,NORMAL,0.2405,0.2435,0.0266,0.2639,1.7333,-2.19,5.82,1.16,1.478,4.039,0,0,1
1784301811.385327,0.2994,0.3046,0.0074,0.1713,NORMAL,0.248,0.2439,0.0742,0.2353,1.7144,-1.87,7.26,1.54,1.489,3.96,0,0,1
1784301811.4201944,0.2949,0.3008,0.018,0.1793,NORMAL,0.243,0.2451,0.0645,0.2525,1.7124,-4.03,6.01,1.56,1.467,3.933,0,0,1
1784301811.4537332,0.3255,0.3066,0.029,0.1702,NORMAL,0.2497,0.2447,0.1463,0.2165,1.7438,-1.52,8.79,1.55,1.481,3.747,0,0,1
1784301811.496044,0.311,0.3105,0.0199,0.1671,FURROW,0.2424,0.2447,0.0127,0.2351,1.6991,-1.89,7.86,1.15,1.49,3.53,0,0,1
1784301811.5193586,0.3064,0.3143,0.0235,0.1681,FURROW,0.2399,0.2446,0.0128,0.228,1.7029,-2.26,8.33,1.15,1.493,3.452,0,0,1
1784301811.5518458,0.3107,0.3093,0.0157,0.1708,NORMAL,0.2369,0.2424,0.076,0.251,1.7162,-2.57,5.9,1.56,1.475,3.416,0,0,1
1784301811.5910103,0.2985,0.3052,0.0257,0.168,FURROW,0.2423,0.2422,0.0943,0.2024,1.7092,-1.19,7.57,1.55,1.482,3.233,0,0,1
1784301811.6107695,0.3038,0.3043,0.0405,0.1655,FURROW,0.2433,0.241,0.119,0.1959,1.7181,-2.31,8.76,1.93,1.481,3.163,0,0,1
1784301811.6440675,0.3152,0.3058,0.0348,0.17,NORMAL,0.2414,0.2408,0.0386,0.2664,1.7154,-2.64,8.57,1.17,1.465,2.991,0,0,1
1784301811.6695995,0.3168,0.3119,0.0295,0.1696,NORMAL,0.2461,0.242,0.0595,0.2275,1.7266,-2.34,8.28,1.58,1.451,2.819,0,0,1
1784301811.7038605,0.3153,0.3158,0.0333,0.169,NORMAL,0.2459,0.2438,0.0247,0.2623,1.727,-2.32,9.43,1.97,1.45,2.82,0,0,1
1784301811.7391598,0.3159,0.316,0.0277,0.1726,NORMAL,0.2459,0.2445,0.0372,0.2419,1.7578,-0.87,7.38,2.37,1.448,2.761,0,0,1
